{"type":"FeatureCollection","features":[{"type":"Feature","geometry":{"type":"Point","coordinates":[24.1353,58.22798]},"properties":{"name":"Saareotsa sihi alumine tulepaak","country":"Estonia","website":null,"opening_hours":null,"capacity":null,"phone":null,"address":null,"ele":null,"operator":null,"wikipedia":null,"wikidata":null,"description":null,"wheelchair":null,"osmType":"node","osmId":677528670}},{"type":"Feature","geometry":{"type":"Point","coordinates":[23.51378,58.95313]},"properties":{"name":"Kajakarahu sihi alumine tulepaak","country":"Estonia","website":null,"opening_hours":null,"capacity":null,"phone":null,"address":null,"ele":null,"operator":null,"wikipedia":null,"wikidata":null,"description":null,"wheelchair":null,"osmType":"node","osmId":677528673}},{"type":"Feature","geometry":{"type":"Point","coordinates":[24.02231,58.14216]},"properties":{"name":"Kihnu sadamamuuli tulepaak","country":"Estonia","website":null,"opening_hours":null,"capacity":null,"phone":null,"address":null,"ele":null,"operator":null,"wikipedia":null,"wikidata":null,"description":null,"wheelchair":null,"osmType":"node","osmId":677528683}},{"type":"Feature","geometry":{"type":"Point","coordinates":[24.1159,59.29417]},"properties":{"name":"Madise sihi alumine tulepaak","country":"Estonia","website":null,"opening_hours":null,"capacity":null,"phone":null,"address":null,"ele":null,"operator":null,"wikipedia":null,"wikidata":null,"description":null,"wheelchair":null,"osmType":"node","osmId":677528685}},{"type":"Feature","geometry":{"type":"Point","coordinates":[22.71948,58.59193]},"properties":{"name":"Triigi sihi alumine tulepaak","country":"Estonia","website":null,"opening_hours":null,"capacity":null,"phone":null,"address":null,"ele":null,"operator":null,"wikipedia":null,"wikidata":null,"description":null,"wheelchair":null,"osmType":"node","osmId":677528688}},{"type":"Feature","geometry":{"type":"Point","coordinates":[24.10026,58.20335]},"properties":{"name":"Manilaiu tuletorn","country":"Estonia","website":null,"opening_hours":null,"capacity":null,"phone":null,"address":null,"ele":null,"operator":null,"wikipedia":"et:Manilaiu tuletorn","wikidata":"Q14955128","description":null,"wheelchair":null,"osmType":"node","osmId":677528690}},{"type":"Feature","geometry":{"type":"Point","coordinates":[24.82068,59.46883]},"properties":{"name":"Pirita sihi alumine tulepaak","country":"Estonia","website":"https://nma.vta.ee/aton/2817","opening_hours":null,"capacity":null,"phone":null,"address":null,"ele":null,"operator":null,"wikipedia":null,"wikidata":null,"description":null,"wheelchair":null,"osmType":"node","osmId":677528693}},{"type":"Feature","geometry":{"type":"Point","coordinates":[23.3066,58.97463]},"properties":{"name":"Sviby sihi ülemine tulepaak","country":"Estonia","website":null,"opening_hours":null,"capacity":null,"phone":null,"address":null,"ele":null,"operator":null,"wikipedia":null,"wikidata":null,"description":null,"wheelchair":null,"osmType":"node","osmId":677528706}},{"type":"Feature","geometry":{"type":"Point","coordinates":[24.81754,59.47006]},"properties":{"name":"Pirita lõunamuuli tulepaak","country":"Estonia","website":"https://nma.vta.ee/aton/2670","opening_hours":null,"capacity":null,"phone":null,"address":null,"ele":null,"operator":null,"wikipedia":null,"wikidata":null,"description":null,"wheelchair":null,"osmType":"node","osmId":677528715}},{"type":"Feature","geometry":{"type":"Point","coordinates":[24.46421,58.3663]},"properties":{"name":"Pärnu idamuuli tulepaak","country":"Estonia","website":null,"opening_hours":null,"capacity":null,"phone":null,"address":null,"ele":null,"operator":null,"wikipedia":null,"wikidata":null,"description":null,"wheelchair":null,"osmType":"node","osmId":677528728}},{"type":"Feature","geometry":{"type":"Point","coordinates":[23.12862,59.02068]},"properties":{"name":"Vormsi põhja-sihi ülemine tulepaak","country":"Estonia","website":null,"opening_hours":null,"capacity":null,"phone":null,"address":null,"ele":null,"operator":null,"wikipedia":null,"wikidata":"Q14956423","description":"Iso.W.6s, rear of leading line 140° with Saxby tuletorn","wheelchair":null,"osmType":"node","osmId":677528733}},{"type":"Feature","geometry":{"type":"Point","coordinates":[24.79302,59.55908]},"properties":{"name":"Rohuneeme sihi alumine tulepaak","country":"Estonia","website":null,"opening_hours":null,"capacity":null,"phone":null,"address":null,"ele":null,"operator":null,"wikipedia":null,"wikidata":null,"description":null,"wheelchair":null,"osmType":"node","osmId":677528741}},{"type":"Feature","geometry":{"type":"Point","coordinates":[27.05515,59.43203]},"properties":{"name":"Moldova tulepaak","country":"Estonia","website":null,"opening_hours":null,"capacity":null,"phone":null,"address":null,"ele":null,"operator":null,"wikipedia":null,"wikidata":null,"description":null,"wheelchair":null,"osmType":"node","osmId":677528745}},{"type":"Feature","geometry":{"type":"Point","coordinates":[23.41873,58.90772]},"properties":{"name":"Rohuküla sadama lõunamuuli tulepaak","country":"Estonia","website":null,"opening_hours":null,"capacity":null,"phone":null,"address":null,"ele":null,"operator":null,"wikipedia":null,"wikidata":null,"description":null,"wheelchair":null,"osmType":"node","osmId":677528761}},{"type":"Feature","geometry":{"type":"Point","coordinates":[24.83982,59.51677]},"properties":{"name":"Viimsi sihi ülemine tuletorn","country":"Estonia","website":null,"opening_hours":null,"capacity":null,"phone":null,"address":null,"ele":null,"operator":null,"wikipedia":null,"wikidata":null,"description":null,"wheelchair":null,"osmType":"node","osmId":677528764}},{"type":"Feature","geometry":{"type":"Point","coordinates":[25.01167,59.63655]},"properties":{"name":"Kelnase sihi ülemine tulepaak","country":"Estonia","website":null,"opening_hours":null,"capacity":null,"phone":null,"address":null,"ele":null,"operator":null,"wikipedia":null,"wikidata":null,"description":null,"wheelchair":null,"osmType":"node","osmId":677528813}},{"type":"Feature","geometry":{"type":"Point","coordinates":[22.49227,58.70107]},"properties":{"name":"Sõru sihi alumine tuletorn","country":"Estonia","website":null,"opening_hours":null,"capacity":null,"phone":null,"address":null,"ele":null,"operator":null,"wikipedia":null,"wikidata":null,"description":"Q.W. front of leading line 310.6°","wheelchair":null,"osmType":"node","osmId":677528826}},{"type":"Feature","geometry":{"type":"Point","coordinates":[24.86815,59.55125]},"properties":{"name":"Leppneeme sadamakai tulepaak","country":"Estonia","website":null,"opening_hours":null,"capacity":null,"phone":null,"address":null,"ele":null,"operator":null,"wikipedia":null,"wikidata":null,"description":null,"wheelchair":null,"osmType":"node","osmId":677528843}},{"type":"Feature","geometry":{"type":"Point","coordinates":[24.04757,59.34978]},"properties":{"name":"Paldiski Põhjasadama läänemuuli tulepaak","country":"Estonia","website":null,"opening_hours":null,"capacity":null,"phone":null,"address":null,"ele":null,"operator":null,"wikipedia":null,"wikidata":null,"description":null,"wheelchair":null,"osmType":"node","osmId":677528855}},{"type":"Feature","geometry":{"type":"Point","coordinates":[26.5112,59.677]},"properties":{"name":"Uhtju tulepaak","country":"Estonia","website":null,"opening_hours":null,"capacity":null,"phone":null,"address":null,"ele":null,"operator":null,"wikipedia":null,"wikidata":null,"description":null,"wheelchair":null,"osmType":"node","osmId":677528856}},{"type":"Feature","geometry":{"type":"Point","coordinates":[23.38987,58.57365]},"properties":{"name":"Kuivastu sihi alumine tulepaak","country":"Estonia","website":null,"opening_hours":null,"capacity":null,"phone":null,"address":null,"ele":null,"operator":null,"wikipedia":null,"wikidata":"Q31277441","description":null,"wheelchair":null,"osmType":"node","osmId":677528860}},{"type":"Feature","geometry":{"type":"Point","coordinates":[24.09382,59.33133]},"properties":{"name":"Paldiski Lõunasadama sihi alumine tulepaak","country":"Estonia","website":null,"opening_hours":null,"capacity":null,"phone":null,"address":null,"ele":null,"operator":null,"wikipedia":null,"wikidata":null,"description":null,"wheelchair":null,"osmType":"node","osmId":677528862}},{"type":"Feature","geometry":{"type":"Point","coordinates":[24.72975,59.60062]},"properties":{"name":"Aegna tulepaak","country":"Estonia","website":null,"opening_hours":null,"capacity":null,"phone":null,"address":null,"ele":null,"operator":null,"wikipedia":null,"wikidata":null,"description":null,"wheelchair":null,"osmType":"node","osmId":677528871}},{"type":"Feature","geometry":{"type":"Point","coordinates":[23.50823,58.5762]},"properties":{"name":"Virtsu sadamakai tulepaak","country":"Estonia","website":null,"opening_hours":null,"capacity":null,"phone":null,"address":null,"ele":null,"operator":null,"wikipedia":null,"wikidata":null,"description":null,"wheelchair":null,"osmType":"node","osmId":677528884}},{"type":"Feature","geometry":{"type":"Point","coordinates":[23.38695,58.9518]},"properties":{"name":"Hobulaiu põhja-tulepaak","country":"Estonia","website":null,"opening_hours":null,"capacity":null,"phone":null,"address":null,"ele":null,"operator":null,"wikipedia":null,"wikidata":null,"description":null,"wheelchair":null,"osmType":"node","osmId":677528893}},{"type":"Feature","geometry":{"type":"Point","coordinates":[25.03738,59.6155]},"properties":{"name":"Prangli kagu tulepaak","country":"Estonia","website":null,"opening_hours":null,"capacity":null,"phone":null,"address":null,"ele":null,"operator":null,"wikipedia":null,"wikidata":"Q12372715","description":null,"wheelchair":null,"osmType":"node","osmId":677528896}},{"type":"Feature","geometry":{"type":"Point","coordinates":[24.13762,58.22842]},"properties":{"name":"Saareotsa sihi ülemine tulepaak","country":"Estonia","website":null,"opening_hours":null,"capacity":null,"phone":null,"address":null,"ele":null,"operator":null,"wikipedia":null,"wikidata":null,"description":null,"wheelchair":null,"osmType":"node","osmId":677528911}},{"type":"Feature","geometry":{"type":"Point","coordinates":[23.5241,58.95273]},"properties":{"name":"Kajakarahu sihi ülemine tulepaak","country":"Estonia","website":null,"opening_hours":null,"capacity":null,"phone":null,"address":null,"ele":null,"operator":null,"wikipedia":null,"wikidata":null,"description":null,"wheelchair":null,"osmType":"node","osmId":677528919}},{"type":"Feature","geometry":{"type":"Point","coordinates":[25.09828,59.59558]},"properties":{"name":"Aksi tulepaak","country":"Estonia","website":null,"opening_hours":null,"capacity":null,"phone":null,"address":null,"ele":null,"operator":null,"wikipedia":null,"wikidata":"Q12358551","description":null,"wheelchair":null,"osmType":"node","osmId":677528923}},{"type":"Feature","geometry":{"type":"Point","coordinates":[27.23513,58.43823]},"properties":{"name":"Praaga sihi ülemine tulepaak","country":"Estonia","website":null,"opening_hours":null,"capacity":null,"phone":null,"address":null,"ele":null,"operator":null,"wikipedia":null,"wikidata":null,"description":null,"wheelchair":null,"osmType":"node","osmId":677528930}},{"type":"Feature","geometry":{"type":"Point","coordinates":[24.4714,58.38562]},"properties":{"name":"Pärnu sihi ülemine tulepaak","country":"Estonia","website":null,"opening_hours":null,"capacity":null,"phone":null,"address":null,"ele":null,"operator":null,"wikipedia":null,"wikidata":null,"description":null,"wheelchair":null,"osmType":"node","osmId":677528937}},{"type":"Feature","geometry":{"type":"Point","coordinates":[23.97875,59.35738]},"properties":{"name":"Väike-Pakri tulepaak","country":"Estonia","website":null,"opening_hours":null,"capacity":null,"phone":null,"address":null,"ele":null,"operator":null,"wikipedia":null,"wikidata":null,"description":null,"wheelchair":null,"osmType":"node","osmId":677528944}},{"type":"Feature","geometry":{"type":"Point","coordinates":[22.71742,58.59097]},"properties":{"name":"Triigi sihi ülemine tulepaak","country":"Estonia","website":null,"opening_hours":null,"capacity":null,"phone":null,"address":null,"ele":null,"operator":null,"wikipedia":null,"wikidata":null,"description":null,"wheelchair":null,"osmType":"node","osmId":677528960}},{"type":"Feature","geometry":{"type":"Point","coordinates":[23.51093,59.22818]},"properties":{"name":"Põõsaspea tulepaak","country":"Estonia","website":null,"opening_hours":null,"capacity":null,"phone":null,"address":null,"ele":null,"operator":null,"wikipedia":null,"wikidata":null,"description":null,"wheelchair":null,"osmType":"node","osmId":677528964}},{"type":"Feature","geometry":{"type":"Point","coordinates":[23.31252,58.97007]},"properties":{"name":"Sviby kai tulepaak","country":"Estonia","website":null,"opening_hours":null,"capacity":null,"phone":null,"address":null,"ele":null,"operator":null,"wikipedia":null,"wikidata":null,"description":null,"wheelchair":null,"osmType":"node","osmId":677528972}},{"type":"Feature","geometry":{"type":"Point","coordinates":[22.48588,58.70393]},"properties":{"name":"Sõru sihi ülemine tuletorn","country":"Estonia","website":null,"opening_hours":null,"capacity":null,"phone":null,"address":null,"ele":null,"operator":null,"wikipedia":null,"wikidata":"Q11234179","description":null,"wheelchair":null,"osmType":"node","osmId":677528976}},{"type":"Feature","geometry":{"type":"Point","coordinates":[24.48662,58.38933]},"properties":{"name":"Silla sihi alumine tulepaak","country":"Estonia","website":null,"opening_hours":null,"capacity":null,"phone":null,"address":null,"ele":null,"operator":null,"wikipedia":null,"wikidata":null,"description":null,"wheelchair":null,"osmType":"node","osmId":677528978}},{"type":"Feature","geometry":{"type":"Point","coordinates":[23.0937,58.5624]},"properties":{"name":"Orissaare sadamakai tulepaak","country":"Estonia","website":null,"opening_hours":null,"capacity":null,"phone":null,"address":null,"ele":null,"operator":null,"wikipedia":null,"wikidata":null,"description":null,"wheelchair":null,"osmType":"node","osmId":677528988}},{"type":"Feature","geometry":{"type":"Point","coordinates":[23.51775,58.96078]},"properties":{"name":"Holmi sihi ülemine tulepaak","country":"Estonia","website":null,"opening_hours":null,"capacity":null,"phone":null,"address":null,"ele":null,"operator":null,"wikipedia":null,"wikidata":null,"description":null,"wheelchair":null,"osmType":"node","osmId":677528990}},{"type":"Feature","geometry":{"type":"Point","coordinates":[24.66622,59.51022]},"properties":{"name":"Vahemadala tuletorn","country":"Estonia","website":null,"opening_hours":null,"capacity":null,"phone":null,"address":null,"ele":null,"operator":null,"wikipedia":null,"wikidata":"Q15219952","description":null,"wheelchair":null,"osmType":"node","osmId":677529001}},{"type":"Feature","geometry":{"type":"Point","coordinates":[24.86758,59.55133]},"properties":{"name":"Leppneeme sihi alumine tulepaak","country":"Estonia","website":null,"opening_hours":null,"capacity":null,"phone":null,"address":null,"ele":null,"operator":null,"wikipedia":null,"wikidata":null,"description":null,"wheelchair":null,"osmType":"node","osmId":677529003}},{"type":"Feature","geometry":{"type":"Point","coordinates":[25.02763,59.50262]},"properties":{"name":"Kallavere sihi alumine tulepaak","country":"Estonia","website":null,"opening_hours":null,"capacity":null,"phone":null,"address":null,"ele":null,"operator":null,"wikipedia":null,"wikidata":null,"description":null,"wheelchair":null,"osmType":"node","osmId":677529013}},{"type":"Feature","geometry":{"type":"Point","coordinates":[24.70283,59.45742]},"properties":{"name":"Paljassaare sihi alumine tulepaak","country":"Estonia","website":null,"opening_hours":null,"capacity":null,"phone":null,"address":null,"ele":null,"operator":null,"wikipedia":null,"wikidata":null,"description":null,"wheelchair":null,"osmType":"node","osmId":677529020}},{"type":"Feature","geometry":{"type":"Point","coordinates":[24.0509,59.34823]},"properties":{"name":"Paldiski Põhjasadama kai nr 1 tulepaak","country":"Estonia","website":null,"opening_hours":null,"capacity":null,"phone":null,"address":null,"ele":null,"operator":null,"wikipedia":null,"wikidata":null,"description":null,"wheelchair":null,"osmType":"node","osmId":677529022}},{"type":"Feature","geometry":{"type":"Point","coordinates":[26.54722,59.52788]},"properties":{"name":"Kunda sadamakai tulepaak","country":"Estonia","website":null,"opening_hours":null,"capacity":null,"phone":null,"address":null,"ele":null,"operator":null,"wikipedia":null,"wikidata":null,"description":null,"wheelchair":null,"osmType":"node","osmId":677529023}},{"type":"Feature","geometry":{"type":"Point","coordinates":[27.1757,58.97937]},"properties":{"name":"Rannapungerja tuletorn","country":"Estonia","website":"https://nma.vta.ee/aton/2113","opening_hours":null,"capacity":null,"phone":null,"address":null,"ele":null,"operator":null,"wikipedia":"et:Rannapungerja tuletorn","wikidata":"Q11320324","description":null,"wheelchair":null,"osmType":"node","osmId":677529025}},{"type":"Feature","geometry":{"type":"Point","coordinates":[23.38435,58.57353]},"properties":{"name":"Kuivastu sihi ülemine tulepaak","country":"Estonia","website":null,"opening_hours":null,"capacity":null,"phone":null,"address":null,"ele":null,"operator":null,"wikipedia":null,"wikidata":"Q12367666","description":null,"wheelchair":null,"osmType":"node","osmId":677529028}},{"type":"Feature","geometry":{"type":"Point","coordinates":[24.0983,59.33194]},"properties":{"name":"Paldiski Lõunasadama sihi ülemine tulepaak","country":"Estonia","website":null,"opening_hours":null,"capacity":null,"phone":null,"address":null,"ele":null,"operator":null,"wikipedia":null,"wikidata":null,"description":null,"wheelchair":null,"osmType":"node","osmId":677529031}},{"type":"Feature","geometry":{"type":"Point","coordinates":[26.5618,59.51003]},"properties":{"name":"Kunda sihi ülemine tulepaak","country":"Estonia","website":null,"opening_hours":null,"capacity":null,"phone":null,"address":null,"ele":null,"operator":null,"wikipedia":null,"wikidata":null,"description":null,"wheelchair":null,"osmType":"node","osmId":677529032}},{"type":"Feature","geometry":{"type":"Point","coordinates":[23.42515,58.629]},"properties":{"name":"Kesse sihi ülemine tulepaak","country":"Estonia","website":null,"opening_hours":null,"capacity":null,"phone":null,"address":null,"ele":null,"operator":null,"wikipedia":null,"wikidata":null,"description":null,"wheelchair":null,"osmType":"node","osmId":677529037}},{"type":"Feature","geometry":{"type":"Point","coordinates":[24.75797,59.57113]},"properties":{"name":"Aegna sadamakai tulepaak","country":"Estonia","website":null,"opening_hours":null,"capacity":null,"phone":null,"address":null,"ele":null,"operator":null,"wikipedia":null,"wikidata":null,"description":null,"wheelchair":null,"osmType":"node","osmId":677529040}},{"type":"Feature","geometry":{"type":"Point","coordinates":[23.31938,58.54097]},"properties":{"name":"Lõunaranna sadamakai tulepaak","country":"Estonia","website":null,"opening_hours":null,"capacity":null,"phone":null,"address":null,"ele":null,"operator":null,"wikipedia":null,"wikidata":null,"description":null,"wheelchair":null,"osmType":"node","osmId":677529044}},{"type":"Feature","geometry":{"type":"Point","coordinates":[24.2644,58.27728]},"properties":{"name":"Liu tulepaak","country":"Estonia","website":null,"opening_hours":null,"capacity":null,"phone":null,"address":null,"ele":null,"operator":null,"wikipedia":null,"wikidata":null,"description":null,"wheelchair":null,"osmType":"node","osmId":677529052}},{"type":"Feature","geometry":{"type":"Point","coordinates":[23.51117,58.95977]},"properties":{"name":"Holmi sihi alumine tulepaak","country":"Estonia","website":null,"opening_hours":null,"capacity":null,"phone":null,"address":null,"ele":null,"operator":null,"wikipedia":null,"wikidata":null,"description":null,"wheelchair":null,"osmType":"node","osmId":677529054}},{"type":"Feature","geometry":{"type":"Point","coordinates":[27.41795,58.33872]},"properties":{"name":"Laaksaare sihi alumine tulepaak","country":"Estonia","website":null,"opening_hours":null,"capacity":null,"phone":null,"address":null,"ele":null,"operator":null,"wikipedia":null,"wikidata":null,"description":null,"wheelchair":null,"osmType":"node","osmId":677529057}},{"type":"Feature","geometry":{"type":"Point","coordinates":[24.48057,58.37893]},"properties":{"name":"Seedri sihi alumine tulepaak","country":"Estonia","website":null,"opening_hours":null,"capacity":null,"phone":null,"address":null,"ele":null,"operator":null,"wikipedia":null,"wikidata":"Q14955828","description":null,"wheelchair":null,"osmType":"node","osmId":677529060}},{"type":"Feature","geometry":{"type":"Point","coordinates":[23.86343,59.3491]},"properties":{"name":"Suur-Pakri tulepaak","country":"Estonia","website":null,"opening_hours":null,"capacity":null,"phone":null,"address":null,"ele":null,"operator":null,"wikipedia":null,"wikidata":null,"description":null,"wheelchair":null,"osmType":"node","osmId":677529062}},{"type":"Feature","geometry":{"type":"Point","coordinates":[23.6296,58.46133]},"properties":{"name":"Pöörilaiu tuletorn","country":"Estonia","website":null,"opening_hours":null,"capacity":null,"phone":null,"address":null,"ele":null,"operator":null,"wikipedia":null,"wikidata":null,"description":null,"wheelchair":null,"osmType":"node","osmId":677529067}},{"type":"Feature","geometry":{"type":"Point","coordinates":[23.501,59.21133]},"properties":{"name":"Dirhami sadamakai tulepaak","country":"Estonia","website":null,"opening_hours":null,"capacity":null,"phone":null,"address":null,"ele":null,"operator":null,"wikipedia":null,"wikidata":null,"description":null,"wheelchair":null,"osmType":"node","osmId":677529069}},{"type":"Feature","geometry":{"type":"Point","coordinates":[24.48833,58.39115]},"properties":{"name":"Silla sihi ülemine tulepaak","country":"Estonia","website":null,"opening_hours":null,"capacity":null,"phone":null,"address":null,"ele":null,"operator":null,"wikipedia":null,"wikidata":null,"description":null,"wheelchair":null,"osmType":"node","osmId":677529081}},{"type":"Feature","geometry":{"type":"Point","coordinates":[24.81563,59.5154]},"properties":{"name":"Viimsi sihi alumine tulepaak","country":"Estonia","website":"https://nma.vta.ee/aton/2796","opening_hours":null,"capacity":null,"phone":null,"address":null,"ele":null,"operator":null,"wikipedia":"et:Viimsi alumine tulepaak","wikidata":"Q12378573","description":null,"wheelchair":null,"osmType":"node","osmId":677529085}},{"type":"Feature","geometry":{"type":"Point","coordinates":[27.72617,59.42367]},"properties":{"name":"Sillamäe sadama läänemuuli tulepaak","country":"Estonia","website":null,"opening_hours":null,"capacity":null,"phone":null,"address":null,"ele":null,"operator":null,"wikipedia":null,"wikidata":null,"description":null,"wheelchair":null,"osmType":"node","osmId":677529096}},{"type":"Feature","geometry":{"type":"Point","coordinates":[27.47662,58.23345]},"properties":{"name":"Mehikoorma tuletorn","country":"Estonia","website":null,"opening_hours":null,"capacity":null,"phone":null,"address":null,"ele":null,"operator":null,"wikipedia":"et:Mehikoorma tuletorn","wikidata":"Q3376520","description":null,"wheelchair":null,"osmType":"node","osmId":677529097}},{"type":"Feature","geometry":{"type":"Point","coordinates":[24.56338,59.54093]},"properties":{"name":"Hülkari tulepaak","country":"Estonia","website":"https://nma.vta.ee/aton/aton_2740.html","opening_hours":null,"capacity":null,"phone":null,"address":null,"ele":null,"operator":null,"wikipedia":null,"wikidata":null,"description":null,"wheelchair":null,"osmType":"node","osmId":677529105}},{"type":"Feature","geometry":{"type":"Point","coordinates":[25.0239,59.49061]},"properties":{"name":"Kallavere sihi ülemine tulepaak","country":"Estonia","website":null,"opening_hours":null,"capacity":null,"phone":null,"address":null,"ele":null,"operator":null,"wikipedia":null,"wikidata":null,"description":null,"wheelchair":null,"osmType":"node","osmId":677529118}},{"type":"Feature","geometry":{"type":"Point","coordinates":[24.6992,59.45672]},"properties":{"name":"Paljassaare sihi ülemine tulepaak","country":"Estonia","website":null,"opening_hours":null,"capacity":null,"phone":null,"address":null,"ele":null,"operator":null,"wikipedia":null,"wikidata":null,"description":null,"wheelchair":null,"osmType":"node","osmId":677529124}},{"type":"Feature","geometry":{"type":"Point","coordinates":[26.54372,59.52355]},"properties":{"name":"Kunda sadama paadikai tulepaak","country":"Estonia","website":null,"opening_hours":null,"capacity":null,"phone":null,"address":null,"ele":null,"operator":null,"wikipedia":null,"wikidata":null,"description":null,"wheelchair":null,"osmType":"node","osmId":677529127}},{"type":"Feature","geometry":{"type":"Point","coordinates":[27.20934,58.60736]},"properties":{"name":"Ninaküla tuletorn","country":"Estonia","website":null,"opening_hours":null,"capacity":null,"phone":null,"address":null,"ele":null,"operator":null,"wikipedia":null,"wikidata":"Q11234172","description":null,"wheelchair":null,"osmType":"node","osmId":677529130}},{"type":"Feature","geometry":{"type":"Point","coordinates":[23.39635,58.57352]},"properties":{"name":"Kuivastu sadamakai tulepaak","country":"Estonia","website":null,"opening_hours":null,"capacity":null,"phone":null,"address":null,"ele":null,"operator":null,"wikipedia":null,"wikidata":null,"description":null,"wheelchair":null,"osmType":"node","osmId":677529134}},{"type":"Feature","geometry":{"type":"Point","coordinates":[24.07941,59.33137]},"properties":{"name":"Paldiski Lõunasadama naftakai tulepaak","country":"Estonia","website":null,"opening_hours":null,"capacity":null,"phone":null,"address":null,"ele":null,"operator":null,"wikipedia":null,"wikidata":null,"description":null,"wheelchair":null,"osmType":"node","osmId":677529136}},{"type":"Feature","geometry":{"type":"Point","coordinates":[26.26497,59.58582]},"properties":{"name":"Vainupea tulepaak","country":"Estonia","website":"https://nma.vta.ee/aton/2531","opening_hours":null,"capacity":null,"phone":null,"address":null,"ele":null,"operator":null,"wikipedia":"et:Vainupea tulepaak","wikidata":"Q12378015","description":null,"wheelchair":null,"osmType":"node","osmId":677529137}},{"type":"Feature","geometry":{"type":"Point","coordinates":[24.99943,59.50348]},"properties":{"name":"Muuga söeterminali kanali tulepaak","country":"Estonia","website":null,"opening_hours":null,"capacity":null,"phone":null,"address":null,"ele":null,"operator":null,"wikipedia":null,"wikidata":null,"description":null,"wheelchair":null,"osmType":"node","osmId":677529152}},{"type":"Feature","geometry":{"type":"Point","coordinates":[24.46568,58.37887]},"properties":{"name":"Pärnu sihi alumine tulepaak","country":"Estonia","website":null,"opening_hours":null,"capacity":null,"phone":null,"address":null,"ele":null,"operator":null,"wikipedia":null,"wikidata":null,"description":null,"wheelchair":null,"osmType":"node","osmId":677529157}},{"type":"Feature","geometry":{"type":"Point","coordinates":[23.43353,59.0192]},"properties":{"name":"Paslepa sihi alumine tuletorn","country":"Estonia","website":null,"opening_hours":null,"capacity":null,"phone":null,"address":null,"ele":null,"operator":null,"wikipedia":null,"wikidata":null,"description":null,"wheelchair":null,"osmType":"node","osmId":677529160}},{"type":"Feature","geometry":{"type":"Point","coordinates":[27.41571,58.33843]},"properties":{"name":"Laaksaare sihi ülemine tulepaak","country":"Estonia","website":null,"opening_hours":null,"capacity":null,"phone":null,"address":null,"ele":null,"operator":null,"wikipedia":null,"wikidata":null,"description":null,"wheelchair":null,"osmType":"node","osmId":677529163}},{"type":"Feature","geometry":{"type":"Point","coordinates":[24.48468,58.38158]},"properties":{"name":"Seedri sihi ülemine tulepaak","country":"Estonia","website":null,"opening_hours":null,"capacity":null,"phone":null,"address":null,"ele":null,"operator":null,"wikipedia":null,"wikidata":"Q12374789","description":null,"wheelchair":null,"osmType":"node","osmId":677529166}},{"type":"Feature","geometry":{"type":"Point","coordinates":[23.77542,59.34452]},"properties":{"name":"Krassi tulepaak","country":"Estonia","website":null,"opening_hours":null,"capacity":null,"phone":null,"address":null,"ele":null,"operator":null,"wikipedia":null,"wikidata":null,"description":null,"wheelchair":null,"osmType":"node","osmId":677529168}},{"type":"Feature","geometry":{"type":"Point","coordinates":[24.01517,58.14258]},"properties":{"name":"Kihnu sihi alumine tulepaak","country":"Estonia","website":null,"opening_hours":null,"capacity":null,"phone":null,"address":null,"ele":null,"operator":null,"wikipedia":null,"wikidata":null,"description":null,"wheelchair":null,"osmType":"node","osmId":677529174}},{"type":"Feature","geometry":{"type":"Point","coordinates":[23.50383,59.20913]},"properties":{"name":"Dirhami sihi alumine tulepaak","country":"Estonia","website":null,"opening_hours":null,"capacity":null,"phone":null,"address":null,"ele":null,"operator":null,"wikipedia":null,"wikidata":null,"description":null,"wheelchair":null,"osmType":"node","osmId":677529176}},{"type":"Feature","geometry":{"type":"Point","coordinates":[22.87435,58.62563]},"properties":{"name":"Rannaküla tulepaak","country":"Estonia","website":null,"opening_hours":null,"capacity":null,"phone":null,"address":null,"ele":null,"operator":null,"wikipedia":null,"wikidata":null,"description":null,"wheelchair":null,"osmType":"node","osmId":677529180}},{"type":"Feature","geometry":{"type":"Point","coordinates":[24.11778,58.22922]},"properties":{"name":"Munalaiu sihi alumine tulepaak","country":"Estonia","website":null,"opening_hours":null,"capacity":null,"phone":null,"address":null,"ele":null,"operator":null,"wikipedia":null,"wikidata":null,"description":null,"wheelchair":null,"osmType":"node","osmId":677529183}},{"type":"Feature","geometry":{"type":"Point","coordinates":[24.48623,58.07365]},"properties":{"name":"Häädemeeste tulepaak","country":"Estonia","website":null,"opening_hours":null,"capacity":null,"phone":null,"address":null,"ele":null,"operator":null,"wikipedia":null,"wikidata":null,"description":null,"wheelchair":null,"osmType":"node","osmId":677529190}},{"type":"Feature","geometry":{"type":"Point","coordinates":[23.35112,59.02003]},"properties":{"name":"Norrby sihi alumine tuletorn","country":"Estonia","website":null,"opening_hours":null,"capacity":null,"phone":null,"address":null,"ele":null,"operator":null,"wikipedia":"et:Norrby alumine tuletorn","wikidata":"Q3741881","description":null,"wheelchair":null,"osmType":"node","osmId":677529197}},{"type":"Feature","geometry":{"type":"Point","coordinates":[23.42577,58.90775]},"properties":{"name":"Rohuküla sihi alumine tulepaak","country":"Estonia","website":null,"opening_hours":null,"capacity":null,"phone":null,"address":null,"ele":null,"operator":null,"wikipedia":null,"wikidata":null,"description":null,"wheelchair":null,"osmType":"node","osmId":677529210}},{"type":"Feature","geometry":{"type":"Point","coordinates":[24.55415,59.55627]},"properties":{"name":"Naissaare sadamamuuli tulepaak","country":"Estonia","website":null,"opening_hours":null,"capacity":null,"phone":null,"address":null,"ele":null,"operator":null,"wikipedia":null,"wikidata":null,"description":null,"wheelchair":null,"osmType":"node","osmId":677529213}},{"type":"Feature","geometry":{"type":"Point","coordinates":[25.70063,59.58255]},"properties":{"name":"Loksa sadama lõunakai tulepaak","country":"Estonia","website":null,"opening_hours":null,"capacity":null,"phone":null,"address":null,"ele":null,"operator":null,"wikipedia":null,"wikidata":null,"description":null,"wheelchair":null,"osmType":"node","osmId":677529225}},{"type":"Feature","geometry":{"type":"Point","coordinates":[26.55665,59.5179]},"properties":{"name":"Kunda sihi alumine tulepaak","country":"Estonia","website":null,"opening_hours":null,"capacity":null,"phone":null,"address":null,"ele":null,"operator":null,"wikipedia":null,"wikidata":null,"description":null,"wheelchair":null,"osmType":"node","osmId":677529235}},{"type":"Feature","geometry":{"type":"Point","coordinates":[27.23875,58.43868]},"properties":{"name":"Praaga sihi alumine tulepaak","country":"Estonia","website":null,"opening_hours":null,"capacity":null,"phone":null,"address":null,"ele":null,"operator":null,"wikipedia":null,"wikidata":null,"description":null,"wheelchair":null,"osmType":"node","osmId":677529237}},{"type":"Feature","geometry":{"type":"Point","coordinates":[23.41497,58.63243]},"properties":{"name":"Kesse sihi alumine tulepaak","country":"Estonia","website":null,"opening_hours":null,"capacity":null,"phone":null,"address":null,"ele":null,"operator":null,"wikipedia":null,"wikidata":null,"description":null,"wheelchair":null,"osmType":"node","osmId":677529240}},{"type":"Feature","geometry":{"type":"Point","coordinates":[26.10082,59.6015]},"properties":{"name":"Vergi tuletorn","country":"Estonia","website":null,"opening_hours":null,"capacity":null,"phone":null,"address":null,"ele":null,"operator":null,"wikipedia":null,"wikidata":null,"description":null,"wheelchair":null,"osmType":"node","osmId":677529243}},{"type":"Feature","geometry":{"type":"Point","coordinates":[23.31108,58.64693]},"properties":{"name":"Raugi sihi ülemine tulepaak","country":"Estonia","website":null,"opening_hours":null,"capacity":null,"phone":null,"address":null,"ele":null,"operator":null,"wikipedia":null,"wikidata":null,"description":null,"wheelchair":null,"osmType":"node","osmId":677529249}},{"type":"Feature","geometry":{"type":"Point","coordinates":[24.79413,59.55846]},"properties":{"name":"Rohuneeme sihi ülemine tulepaak","country":"Estonia","website":null,"opening_hours":null,"capacity":null,"phone":null,"address":null,"ele":null,"operator":null,"wikipedia":null,"wikidata":null,"description":null,"wheelchair":null,"osmType":"node","osmId":677529261}},{"type":"Feature","geometry":{"type":"Point","coordinates":[23.52303,58.57638]},"properties":{"name":"Virtsu sihi alumine tulepaak","country":"Estonia","website":null,"opening_hours":null,"capacity":null,"phone":null,"address":null,"ele":null,"operator":null,"wikipedia":null,"wikidata":null,"description":null,"wheelchair":null,"osmType":"node","osmId":677529276}},{"type":"Feature","geometry":{"type":"Point","coordinates":[23.43947,59.0158]},"properties":{"name":"Paslepa sihi ülemine tuletorn","country":"Estonia","website":null,"opening_hours":null,"capacity":null,"phone":null,"address":null,"ele":null,"operator":null,"wikipedia":null,"wikidata":null,"description":null,"wheelchair":null,"osmType":"node","osmId":677529282}},{"type":"Feature","geometry":{"type":"Point","coordinates":[24.97102,59.54995]},"properties":{"name":"Karbimadala tuletorn","country":"Estonia","website":null,"opening_hours":null,"capacity":null,"phone":null,"address":null,"ele":null,"operator":null,"wikipedia":null,"wikidata":"Q15219102","description":null,"wheelchair":null,"osmType":"node","osmId":677529283}},{"type":"Feature","geometry":{"type":"Point","coordinates":[24.46163,58.36862]},"properties":{"name":"Pärnu läänemuuli tulepaak","country":"Estonia","website":null,"opening_hours":null,"capacity":null,"phone":null,"address":null,"ele":null,"operator":null,"wikipedia":null,"wikidata":null,"description":null,"wheelchair":null,"osmType":"node","osmId":677529287}},{"type":"Feature","geometry":{"type":"Point","coordinates":[24.01318,58.14263]},"properties":{"name":"Kihnu sihi ülemine tulepaak","country":"Estonia","website":null,"opening_hours":null,"capacity":null,"phone":null,"address":null,"ele":null,"operator":null,"wikipedia":null,"wikidata":null,"description":null,"wheelchair":null,"osmType":"node","osmId":677529295}},{"type":"Feature","geometry":{"type":"Point","coordinates":[23.50447,59.20722]},"properties":{"name":"Dirhami sihi ülemine tulepaak","country":"Estonia","website":null,"opening_hours":null,"capacity":null,"phone":null,"address":null,"ele":null,"operator":null,"wikipedia":null,"wikidata":null,"description":null,"wheelchair":null,"osmType":"node","osmId":677529297}},{"type":"Feature","geometry":{"type":"Point","coordinates":[22.71867,58.5914]},"properties":{"name":"Triigi jahisadama tulepaak","country":"Estonia","website":null,"opening_hours":null,"capacity":null,"phone":null,"address":null,"ele":null,"operator":null,"wikipedia":null,"wikidata":null,"description":null,"wheelchair":null,"osmType":"node","osmId":677529301}},{"type":"Feature","geometry":{"type":"Point","coordinates":[24.11702,58.22993]},"properties":{"name":"Munalaiu sihi ülemine tulepaak","country":"Estonia","website":null,"opening_hours":null,"capacity":null,"phone":null,"address":null,"ele":null,"operator":null,"wikipedia":null,"wikidata":null,"description":null,"wheelchair":null,"osmType":"node","osmId":677529303}},{"type":"Feature","geometry":{"type":"Point","coordinates":[23.31255,58.97045]},"properties":{"name":"Sviby sihi alumine tulepaak","country":"Estonia","website":null,"opening_hours":null,"capacity":null,"phone":null,"address":null,"ele":null,"operator":null,"wikipedia":null,"wikidata":null,"description":null,"wheelchair":null,"osmType":"node","osmId":677529312}},{"type":"Feature","geometry":{"type":"Point","coordinates":[27.73958,59.42619]},"properties":{"name":"Sillamäe sadama tankerikai tulepaak","country":"Estonia","website":null,"opening_hours":null,"capacity":null,"phone":null,"address":null,"ele":null,"operator":null,"wikipedia":null,"wikidata":null,"description":null,"wheelchair":null,"osmType":"node","osmId":677529315}},{"type":"Feature","geometry":{"type":"Point","coordinates":[23.01972,58.64614]},"properties":{"name":"Kõinastu tulepaak","country":"Estonia","website":null,"opening_hours":null,"capacity":null,"phone":null,"address":null,"ele":null,"operator":null,"wikipedia":null,"wikidata":null,"description":null,"wheelchair":null,"osmType":"node","osmId":677529319}},{"type":"Feature","geometry":{"type":"Point","coordinates":[23.42357,58.90472]},"properties":{"name":"Rohuküla sadamakai tulepaak","country":"Estonia","website":null,"opening_hours":null,"capacity":null,"phone":null,"address":null,"ele":null,"operator":null,"wikipedia":null,"wikidata":null,"description":null,"wheelchair":null,"osmType":"node","osmId":677529323}},{"type":"Feature","geometry":{"type":"Point","coordinates":[27.3658,59.44518]},"properties":{"name":"Valaste tulepaak","country":"Estonia","website":null,"opening_hours":null,"capacity":null,"phone":null,"address":null,"ele":null,"operator":null,"wikipedia":null,"wikidata":null,"description":null,"wheelchair":null,"osmType":"node","osmId":677529344}},{"type":"Feature","geometry":{"type":"Point","coordinates":[23.35013,58.90421]},"properties":{"name":"Rukkirahu tuletorn","country":"Estonia","website":null,"opening_hours":null,"capacity":null,"phone":null,"address":null,"ele":null,"operator":null,"wikipedia":null,"wikidata":"Q11291693","description":null,"wheelchair":null,"osmType":"node","osmId":677529345}},{"type":"Feature","geometry":{"type":"Point","coordinates":[23.41623,58.90878]},"properties":{"name":"Rohuküla sadama põhjamuuli tulepaak","country":"Estonia","website":null,"opening_hours":null,"capacity":null,"phone":null,"address":null,"ele":null,"operator":null,"wikipedia":null,"wikidata":null,"description":null,"wheelchair":null,"osmType":"node","osmId":677529349}},{"type":"Feature","geometry":{"type":"Point","coordinates":[25.01285,59.6372]},"properties":{"name":"Kelnase sihi alumine tulepaak","country":"Estonia","website":null,"opening_hours":null,"capacity":null,"phone":null,"address":null,"ele":null,"operator":null,"wikipedia":null,"wikidata":null,"description":null,"wheelchair":null,"osmType":"node","osmId":677529375}},{"type":"Feature","geometry":{"type":"Point","coordinates":[24.86647,59.5508]},"properties":{"name":"Leppneeme sihi ülemine tulepaak","country":"Estonia","website":null,"opening_hours":null,"capacity":null,"phone":null,"address":null,"ele":null,"operator":null,"wikipedia":null,"wikidata":null,"description":null,"wheelchair":null,"osmType":"node","osmId":677529392}},{"type":"Feature","geometry":{"type":"Point","coordinates":[22.9694,58.29973]},"properties":{"name":"Kõiguste-Allirahu tulepaak","country":"Estonia","website":null,"opening_hours":null,"capacity":null,"phone":null,"address":null,"ele":null,"operator":null,"wikipedia":null,"wikidata":null,"description":null,"wheelchair":null,"osmType":"node","osmId":677529396}},{"type":"Feature","geometry":{"type":"Point","coordinates":[24.03693,59.35398]},"properties":{"name":"Paldiski Põhjasadama lainemurdja tulepaak","country":"Estonia","website":null,"opening_hours":null,"capacity":null,"phone":null,"address":null,"ele":null,"operator":null,"wikipedia":null,"wikidata":null,"description":null,"wheelchair":null,"osmType":"node","osmId":677529404}},{"type":"Feature","geometry":{"type":"Point","coordinates":[25.69893,59.5835]},"properties":{"name":"Loksa sadama loodekai tulepaak","country":"Estonia","website":null,"opening_hours":null,"capacity":null,"phone":null,"address":null,"ele":null,"operator":null,"wikipedia":null,"wikidata":null,"description":null,"wheelchair":null,"osmType":"node","osmId":677529406}},{"type":"Feature","geometry":{"type":"Point","coordinates":[23.19213,58.68323]},"properties":{"name":"Seanina tulepaak","country":"Estonia","website":null,"opening_hours":null,"capacity":null,"phone":null,"address":null,"ele":null,"operator":null,"wikipedia":"et:Seanina tulepaak","wikidata":"Q12374781","description":null,"wheelchair":null,"osmType":"node","osmId":677529414}},{"type":"Feature","geometry":{"type":"Point","coordinates":[24.07312,59.3375]},"properties":{"name":"Paldiski Lõunasadama tulepaak","country":"Estonia","website":null,"opening_hours":null,"capacity":null,"phone":null,"address":null,"ele":null,"operator":null,"wikipedia":null,"wikidata":null,"description":null,"wheelchair":null,"osmType":"node","osmId":677529419}},{"type":"Feature","geometry":{"type":"Point","coordinates":[24.7315,59.71205]},"properties":{"name":"Tallinnamadala tuletorn","country":"Estonia","website":null,"opening_hours":null,"capacity":null,"phone":null,"address":null,"ele":null,"operator":null,"wikipedia":null,"wikidata":"Q30140751","description":null,"wheelchair":null,"osmType":"node","osmId":677529438}},{"type":"Feature","geometry":{"type":"Point","coordinates":[23.52805,58.57648]},"properties":{"name":"Virtsu sihi ülemine tulepaak","country":"Estonia","website":null,"opening_hours":null,"capacity":null,"phone":null,"address":null,"ele":null,"operator":null,"wikipedia":null,"wikidata":null,"description":null,"wheelchair":null,"osmType":"node","osmId":677529442}},{"type":"Feature","geometry":{"type":"Point","coordinates":[23.39078,58.97433]},"properties":{"name":"Uppholmi tulepaak","country":"Estonia","website":null,"opening_hours":null,"capacity":null,"phone":null,"address":null,"ele":null,"operator":null,"wikipedia":null,"wikidata":null,"description":null,"wheelchair":null,"osmType":"node","osmId":677529446}},{"type":"Feature","geometry":{"type":"Point","coordinates":[24.96888,59.64565]},"properties":{"name":"Prangli loode tuletorn","country":"Estonia","website":null,"opening_hours":null,"capacity":null,"phone":null,"address":null,"ele":null,"operator":null,"wikipedia":null,"wikidata":null,"description":null,"wheelchair":null,"osmType":"node","osmId":677529447}},{"type":"Feature","geometry":{"type":"Point","coordinates":[25.14249,59.5406]},"properties":{"name":"Ihasalu päevamärk","country":"Estonia","website":null,"opening_hours":null,"capacity":null,"phone":null,"address":null,"ele":null,"operator":null,"wikipedia":"et:Ihasalu päevamärk","wikidata":"Q12364348","description":null,"wheelchair":null,"osmType":"node","osmId":1237643358}},{"type":"Feature","geometry":{"type":"Point","coordinates":[25.23184,59.57322]},"properties":{"name":"Rammu ülemine tuletorn","country":"Estonia","website":null,"opening_hours":null,"capacity":null,"phone":null,"address":null,"ele":null,"operator":null,"wikipedia":null,"wikidata":null,"description":null,"wheelchair":null,"osmType":"node","osmId":1252216734}},{"type":"Feature","geometry":{"type":"Point","coordinates":[24.79445,59.55888]},"properties":{"name":"Rohuneeme merekanali sihi ülemine tulepaak","country":"Estonia","website":null,"opening_hours":null,"capacity":null,"phone":null,"address":null,"ele":null,"operator":null,"wikipedia":null,"wikidata":null,"description":null,"wheelchair":null,"osmType":"node","osmId":1547820525}},{"type":"Feature","geometry":{"type":"Point","coordinates":[24.792,59.55864]},"properties":{"name":"Rohuneeme merekanali sihi alumine tulepaak","country":"Estonia","website":null,"opening_hours":null,"capacity":null,"phone":null,"address":null,"ele":null,"operator":null,"wikipedia":null,"wikidata":null,"description":null,"wheelchair":null,"osmType":"node","osmId":1547820530}},{"type":"Feature","geometry":{"type":"Point","coordinates":[24.55081,59.55585]},"properties":{"name":"Naissaare sadama tulepaak","country":"Estonia","website":null,"opening_hours":null,"capacity":null,"phone":null,"address":null,"ele":null,"operator":null,"wikipedia":null,"wikidata":"Q12370841","description":null,"wheelchair":null,"osmType":"node","osmId":1547851073}},{"type":"Feature","geometry":{"type":"Point","coordinates":[22.55357,58.69075]},"properties":{"name":"Emmaste sihi alumine tuletorn","country":"Estonia","website":null,"opening_hours":null,"capacity":null,"phone":null,"address":null,"ele":null,"operator":null,"wikipedia":null,"wikidata":"Q11293864","description":null,"wheelchair":null,"osmType":"node","osmId":1550091938}},{"type":"Feature","geometry":{"type":"Point","coordinates":[23.30727,58.65337]},"properties":{"name":"Raugi sihi alumine tulepaak","country":"Estonia","website":null,"opening_hours":null,"capacity":null,"phone":null,"address":null,"ele":null,"operator":null,"wikipedia":null,"wikidata":null,"description":null,"wheelchair":null,"osmType":"node","osmId":1550111909}},{"type":"Feature","geometry":{"type":"Point","coordinates":[25.21617,59.57184]},"properties":{"name":"Rammu alumine tuletorn","country":"Estonia","website":null,"opening_hours":null,"capacity":null,"phone":null,"address":null,"ele":null,"operator":null,"wikipedia":null,"wikidata":null,"description":null,"wheelchair":null,"osmType":"node","osmId":1787042264}},{"type":"Feature","geometry":{"type":"Point","coordinates":[23.5016,58.56725]},"properties":{"name":"Virtsu tuletorn","country":"Estonia","website":null,"opening_hours":null,"capacity":null,"phone":null,"address":null,"ele":null,"operator":null,"wikipedia":"et:Virtsu tuletorn","wikidata":"Q10968359","description":null,"wheelchair":null,"osmType":"node","osmId":2611212954}},{"type":"Feature","geometry":{"type":"Point","coordinates":[23.08483,58.96883]},"properties":{"name":"Harilaiu tuletorn","country":"Estonia","website":null,"opening_hours":null,"capacity":null,"phone":null,"address":null,"ele":null,"operator":null,"wikipedia":null,"wikidata":"Q12363441","description":null,"wheelchair":null,"osmType":"node","osmId":3369747150}},{"type":"Feature","geometry":{"type":"Point","coordinates":[23.11743,59.02759]},"properties":{"name":"Vormsi (Saxby) tuletorn","country":"Estonia","website":null,"opening_hours":null,"capacity":null,"phone":null,"address":null,"ele":null,"operator":null,"wikipedia":null,"wikidata":"Q3360311","description":null,"wheelchair":null,"osmType":"node","osmId":3369752554}},{"type":"Feature","geometry":{"type":"Point","coordinates":[23.44301,58.54481]},"properties":{"name":"Viirelaiu tuletorn","country":"Estonia","website":null,"opening_hours":null,"capacity":null,"phone":null,"address":null,"ele":null,"operator":null,"wikipedia":null,"wikidata":"Q11314950","description":null,"wheelchair":null,"osmType":"node","osmId":3369823228}},{"type":"Feature","geometry":{"type":"Point","coordinates":[24.19983,58.17873]},"properties":{"name":"Sorgu tuletorn","country":"Estonia","website":null,"opening_hours":null,"capacity":null,"phone":null,"address":null,"ele":null,"operator":null,"wikipedia":null,"wikidata":"Q15219785","description":null,"wheelchair":null,"osmType":"node","osmId":3369832013}},{"type":"Feature","geometry":{"type":"Point","coordinates":[23.97111,58.09706]},"properties":{"name":"Kihnu tuletorn","country":"Estonia","website":null,"opening_hours":null,"capacity":null,"phone":null,"address":null,"ele":null,"operator":null,"wikipedia":null,"wikidata":"Q3361476","description":null,"wheelchair":null,"osmType":"node","osmId":3369832511}},{"type":"Feature","geometry":{"type":"Point","coordinates":[26.60688,59.55243]},"properties":{"name":"Letipea tuletorn","country":"Estonia","website":null,"opening_hours":null,"capacity":null,"phone":null,"address":null,"ele":null,"operator":null,"wikipedia":null,"wikidata":"Q11294463","description":null,"wheelchair":null,"osmType":"node","osmId":3371327545}},{"type":"Feature","geometry":{"type":"Point","coordinates":[22.821,58.26067]},"properties":{"name":"Sääretüki tuletorn","country":"Estonia","website":null,"opening_hours":null,"capacity":null,"phone":null,"address":null,"ele":null,"operator":null,"wikipedia":null,"wikidata":"Q12375665","description":null,"wheelchair":null,"osmType":"node","osmId":3379219971}},{"type":"Feature","geometry":{"type":"Point","coordinates":[23.29991,58.42836]},"properties":{"name":"Kübassaare tuletorn","country":"Estonia","website":"https://nma.vta.ee/aton/2783","opening_hours":null,"capacity":null,"phone":null,"address":null,"ele":null,"operator":null,"wikipedia":"et:Kübassaare tuletorn","wikidata":"Q11295266","description":null,"wheelchair":null,"osmType":"node","osmId":3379224618}},{"type":"Feature","geometry":{"type":"Point","coordinates":[23.73987,58.35032]},"properties":{"name":"Sõmeri tuletorn","country":"Estonia","website":null,"opening_hours":null,"capacity":null,"phone":null,"address":null,"ele":null,"operator":null,"wikipedia":null,"wikidata":"Q11234333","description":null,"wheelchair":null,"osmType":"node","osmId":3379225162}},{"type":"Feature","geometry":{"type":"Point","coordinates":[22.58622,59.0914]},"properties":{"name":"Tahkuna tuletorn","country":"Estonia","website":null,"opening_hours":null,"capacity":null,"phone":null,"address":null,"ele":null,"operator":null,"wikipedia":null,"wikidata":"Q3361471","description":null,"wheelchair":null,"osmType":"node","osmId":3380792473}},{"type":"Feature","geometry":{"type":"Point","coordinates":[22.83866,59.00167]},"properties":{"name":"Hiiessaare tuletorn","country":"Estonia","website":"https://nma.vta.ee/aton/2545","opening_hours":null,"capacity":null,"phone":null,"address":null,"ele":null,"operator":null,"wikipedia":"et:Hiiessaare tuletorn","wikidata":"Q11265991","description":null,"wheelchair":null,"osmType":"node","osmId":3380794456}},{"type":"Feature","geometry":{"type":"Point","coordinates":[23.48283,58.934]},"properties":{"name":"Paralepa sihi alumine tuletorn","country":"Estonia","website":null,"opening_hours":null,"capacity":null,"phone":null,"address":null,"ele":null,"operator":null,"wikipedia":null,"wikidata":"Q11234963","description":null,"wheelchair":null,"osmType":"node","osmId":3382406087}},{"type":"Feature","geometry":{"type":"Point","coordinates":[23.48903,58.92763]},"properties":{"name":"Paralepa sihi ülemine tuletorn","country":"Estonia","website":null,"opening_hours":null,"capacity":null,"phone":null,"address":null,"ele":null,"operator":null,"wikipedia":null,"wikidata":"Q11294148","description":null,"wheelchair":null,"osmType":"node","osmId":3382406088}},{"type":"Feature","geometry":{"type":"Point","coordinates":[23.34753,59.01167]},"properties":{"name":"Norrby sihi ülemine tuletorn","country":"Estonia","website":null,"opening_hours":null,"capacity":null,"phone":null,"address":null,"ele":null,"operator":null,"wikipedia":null,"wikidata":"Q3360316","description":null,"wheelchair":null,"osmType":"node","osmId":3382410552}},{"type":"Feature","geometry":{"type":"Point","coordinates":[25.02274,59.69872]},"properties":{"name":"Keri tuletorn","country":"Estonia","website":null,"opening_hours":null,"capacity":null,"phone":null,"address":null,"ele":null,"operator":null,"wikipedia":null,"wikidata":"Q2984041","description":null,"wheelchair":null,"osmType":"node","osmId":3383966126}},{"type":"Feature","geometry":{"type":"Point","coordinates":[25.51031,59.64667]},"properties":{"name":"Juminda tuletorn","country":"Estonia","website":null,"opening_hours":null,"capacity":null,"phone":null,"address":null,"ele":null,"operator":null,"wikipedia":null,"wikidata":"Q11022763","description":null,"wheelchair":null,"osmType":"node","osmId":3385093706}},{"type":"Feature","geometry":{"type":"Point","coordinates":[27.18664,59.85435]},"properties":{"name":null,"country":"Estonia","website":null,"opening_hours":null,"capacity":null,"phone":null,"address":null,"ele":null,"operator":null,"wikipedia":null,"wikidata":null,"description":null,"wheelchair":null,"osmType":"node","osmId":5438143434}},{"type":"Feature","geometry":{"type":"Point","coordinates":[23.67549,58.4293]},"properties":{"name":"Varbla Puhkeküla sadama muuli tulepaak","country":"Estonia","website":null,"opening_hours":null,"capacity":null,"phone":null,"address":null,"ele":null,"operator":"Varbla Puhkeküla AS","wikipedia":null,"wikidata":null,"description":null,"wheelchair":null,"osmType":"node","osmId":7777381804}},{"type":"Feature","geometry":{"type":"Point","coordinates":[26.05171,58.40641]},"properties":{"name":null,"country":"Estonia","website":null,"opening_hours":null,"capacity":null,"phone":null,"address":null,"ele":null,"operator":null,"wikipedia":null,"wikidata":null,"description":null,"wheelchair":null,"osmType":"node","osmId":12122588441}},{"type":"Feature","geometry":{"type":"Point","coordinates":[24.8056,59.4279]},"properties":{"name":"Tallinna sihi ülemine tuletorn","country":"Estonia","website":"https://nma.vta.ee/aton/2821/","opening_hours":null,"capacity":null,"phone":null,"address":null,"ele":null,"operator":"Transpordiamet","wikipedia":null,"wikidata":"Q12005125","description":"Uk admiralty no 3810.1","wheelchair":null,"osmType":"way","osmId":26877654}},{"type":"Feature","geometry":{"type":"Point","coordinates":[24.79857,59.4373]},"properties":{"name":"Tallinna sihi alumine tuletorn","country":"Estonia","website":null,"opening_hours":null,"capacity":null,"phone":null,"address":"3/2 Valge, 11413 Tallinn, EE","ele":null,"operator":null,"wikipedia":null,"wikidata":"Q14956087","description":null,"wheelchair":null,"osmType":"way","osmId":26887425}},{"type":"Feature","geometry":{"type":"Point","coordinates":[26.36061,59.81711]},"properties":{"name":"Vaindloo tuletorn","country":"Estonia","website":null,"opening_hours":null,"capacity":null,"phone":null,"address":null,"ele":null,"operator":null,"wikipedia":"et:Vaindloo tuletorn","wikidata":"Q11268326","description":null,"wheelchair":null,"osmType":"way","osmId":43582499}},{"type":"Feature","geometry":{"type":"Point","coordinates":[24.03771,59.38742]},"properties":{"name":"Pakri tuletorn","country":"Estonia","website":null,"opening_hours":null,"capacity":null,"phone":null,"address":null,"ele":null,"operator":null,"wikipedia":null,"wikidata":"Q3376587","description":null,"wheelchair":null,"osmType":"way","osmId":83939819}},{"type":"Feature","geometry":{"type":"Point","coordinates":[23.0882,58.37942]},"properties":{"name":"Laidunina tuletorn","country":"Estonia","website":null,"opening_hours":null,"capacity":null,"phone":null,"address":"94418 Asva küla, EE","ele":null,"operator":null,"wikipedia":"et:Laidunina tuletorn","wikidata":"Q14955055","description":null,"wheelchair":null,"osmType":"way","osmId":107732353}},{"type":"Feature","geometry":{"type":"Point","coordinates":[23.36113,59.30362]},"properties":{"name":"Osmussaare tuletorn","country":"Estonia","website":null,"opening_hours":null,"capacity":null,"phone":null,"address":null,"ele":null,"operator":null,"wikipedia":null,"wikidata":"Q3376581","description":null,"wheelchair":null,"osmType":"way","osmId":198264921}},{"type":"Feature","geometry":{"type":"Point","coordinates":[24.51059,59.60369]},"properties":{"name":"Naissaare tuletorn","country":"Estonia","website":null,"opening_hours":null,"capacity":null,"phone":null,"address":null,"ele":null,"operator":null,"wikipedia":null,"wikidata":"Q3361465","description":"For visitors: go to house besides lighthouse, shout and then someone will come out and unlock the tower. Ticket price (2020): 5 EUR","wheelchair":null,"osmType":"way","osmId":224605672}},{"type":"Feature","geometry":{"type":"Point","coordinates":[24.41655,59.47166]},"properties":{"name":"Suurupi sihi alumine tuletorn","country":"Estonia","website":null,"opening_hours":null,"capacity":null,"phone":null,"address":"76907 Suurupi küla, EE","ele":null,"operator":null,"wikipedia":null,"wikidata":"Q11286991","description":null,"wheelchair":null,"osmType":"way","osmId":232453083}},{"type":"Feature","geometry":{"type":"Point","coordinates":[24.38027,59.46358]},"properties":{"name":"Suurupi tuletorn","country":"Estonia","website":null,"opening_hours":null,"capacity":null,"phone":null,"address":"5 Meretule tee, 76907 Suurupi küla, EE","ele":null,"operator":null,"wikipedia":null,"wikidata":"Q3376488","description":null,"wheelchair":null,"osmType":"way","osmId":251914768}},{"type":"Feature","geometry":{"type":"Point","coordinates":[24.36046,57.86636]},"properties":{"name":"Ainažu vecā bāka","country":"Estonia","website":null,"opening_hours":null,"capacity":null,"phone":null,"address":"35A Valdemāra iela, LV-4035 Ainaži, LV","ele":null,"operator":null,"wikipedia":null,"wikidata":"Q19891960","description":null,"wheelchair":null,"osmType":"way","osmId":290580184}},{"type":"Feature","geometry":{"type":"Point","coordinates":[25.92331,59.60474]},"properties":{"name":"Käsmu tuletorn","country":"Estonia","website":null,"opening_hours":null,"capacity":null,"phone":null,"address":null,"ele":null,"operator":null,"wikipedia":null,"wikidata":"Q20972230","description":"The lighthouse is open for visitors as a museum.","wheelchair":"no","osmType":"way","osmId":363232536}},{"type":"Feature","geometry":{"type":"Point","coordinates":[25.79543,59.68392]},"properties":{"name":"Mohni tuletorn","country":"Estonia","website":null,"opening_hours":null,"capacity":null,"phone":null,"address":"74701 Viinistu küla, EE","ele":null,"operator":null,"wikipedia":null,"wikidata":"Q11028496","description":null,"wheelchair":null,"osmType":"way","osmId":1210123634}},{"type":"Feature","geometry":{"type":"Point","coordinates":[24.81827,59.47054]},"properties":{"name":"Pirita põhjamuuli tulepaak","country":"Estonia","website":"https://nma.vta.ee/aton/2669","opening_hours":null,"capacity":null,"phone":null,"address":null,"ele":null,"operator":null,"wikipedia":null,"wikidata":null,"description":null,"wheelchair":null,"osmType":"way","osmId":1435610338}}]}