{"type":"FeatureCollection","features":[{"type":"Feature","geometry":{"type":"Point","coordinates":[-5.1339,48.42223]},"properties":{"name":"Phare de la Jument","country":"France","website":null,"opening_hours":null,"capacity":null,"phone":null,"address":null,"osmType":"node","osmId":117081598}},{"type":"Feature","geometry":{"type":"Point","coordinates":[-3.50932,47.64741]},"properties":{"name":"Phare de Pen-Men","country":"France","website":null,"opening_hours":null,"capacity":null,"phone":null,"address":null,"osmType":"node","osmId":255359392}},{"type":"Feature","geometry":{"type":"Point","coordinates":[-1.27731,46.16298]},"properties":{"name":null,"country":"France","website":null,"opening_hours":null,"capacity":null,"phone":null,"address":null,"osmType":"node","osmId":275019099}},{"type":"Feature","geometry":{"type":"Point","coordinates":[-5.15091,48.44564]},"properties":{"name":"Phare de Nividic","country":"France","website":null,"opening_hours":null,"capacity":null,"phone":null,"address":null,"osmType":"node","osmId":275049016}},{"type":"Feature","geometry":{"type":"Point","coordinates":[-2.57163,48.58037]},"properties":{"name":"Phare de la Petite Muette","country":"France","website":null,"opening_hours":null,"capacity":null,"phone":null,"address":null,"osmType":"node","osmId":293470313}},{"type":"Feature","geometry":{"type":"Point","coordinates":[-4.28505,47.79151]},"properties":{"name":"Môle Nord","country":"France","website":null,"opening_hours":null,"capacity":null,"phone":null,"address":null,"osmType":"node","osmId":322118873}},{"type":"Feature","geometry":{"type":"Point","coordinates":[-4.28616,47.79084]},"properties":{"name":"Môle Ouest Léchiagat","country":"France","website":null,"opening_hours":null,"capacity":null,"phone":null,"address":null,"osmType":"node","osmId":348069056}},{"type":"Feature","geometry":{"type":"Point","coordinates":[-4.28478,47.79088]},"properties":{"name":"Môle Sud","country":"France","website":null,"opening_hours":null,"capacity":null,"phone":null,"address":null,"osmType":"node","osmId":348069074}},{"type":"Feature","geometry":{"type":"Point","coordinates":[-4.28464,47.7906]},"properties":{"name":"Feu Antérieur","country":"France","website":null,"opening_hours":null,"capacity":null,"phone":null,"address":null,"osmType":"node","osmId":348522765}},{"type":"Feature","geometry":{"type":"Point","coordinates":[-4.34976,47.79404]},"properties":{"name":"Môle Est","country":"France","website":null,"opening_hours":null,"capacity":null,"phone":null,"address":null,"osmType":"node","osmId":369740843}},{"type":"Feature","geometry":{"type":"Point","coordinates":[-4.73213,48.58656]},"properties":{"name":"Corn ar'Che","country":"France","website":null,"opening_hours":null,"capacity":null,"phone":null,"address":null,"osmType":"node","osmId":479846826}},{"type":"Feature","geometry":{"type":"Point","coordinates":[-3.73907,47.79977]},"properties":{"name":"Phare de Port Manec'h","country":"France","website":null,"opening_hours":null,"capacity":null,"phone":null,"address":null,"osmType":"node","osmId":500005640}},{"type":"Feature","geometry":{"type":"Point","coordinates":[-3.92574,47.85787]},"properties":{"name":"Le Cochon","country":"France","website":null,"opening_hours":null,"capacity":null,"phone":null,"address":null,"osmType":"node","osmId":500005644}},{"type":"Feature","geometry":{"type":"Point","coordinates":[-4.46563,48.09879]},"properties":{"name":"Phare du Millier","country":"France","website":null,"opening_hours":null,"capacity":null,"phone":null,"address":null,"osmType":"node","osmId":535700544}},{"type":"Feature","geometry":{"type":"Point","coordinates":[-4.5511,48.00523]},"properties":{"name":null,"country":"France","website":null,"opening_hours":null,"capacity":null,"phone":null,"address":null,"osmType":"node","osmId":553306638}},{"type":"Feature","geometry":{"type":"Point","coordinates":[-4.5463,48.01592]},"properties":{"name":"Phare de Kergadec","country":"France","website":null,"opening_hours":null,"capacity":null,"phone":null,"address":null,"osmType":"node","osmId":602214530}},{"type":"Feature","geometry":{"type":"Point","coordinates":[-4.53849,48.01484]},"properties":{"name":"Coz Fornic","country":"France","website":null,"opening_hours":null,"capacity":null,"phone":null,"address":null,"osmType":"node","osmId":602489822}},{"type":"Feature","geometry":{"type":"Point","coordinates":[-4.5357,48.0166]},"properties":{"name":"Le Vieux Môle","country":"France","website":null,"opening_hours":null,"capacity":null,"phone":null,"address":null,"osmType":"node","osmId":602489831}},{"type":"Feature","geometry":{"type":"Point","coordinates":[-2.24924,47.25742]},"properties":{"name":"Tour du Commerce","country":"France","website":null,"opening_hours":null,"capacity":null,"phone":null,"address":null,"osmType":"node","osmId":648609954}},{"type":"Feature","geometry":{"type":"Point","coordinates":[-2.24634,47.26026]},"properties":{"name":"Kerlédé","country":"France","website":null,"opening_hours":null,"capacity":null,"phone":null,"address":null,"osmType":"node","osmId":648609964}},{"type":"Feature","geometry":{"type":"Point","coordinates":[-1.47354,46.16193]},"properties":{"name":"Phare de Chanchardon","country":"France","website":null,"opening_hours":null,"capacity":null,"phone":null,"address":null,"osmType":"node","osmId":670006878}},{"type":"Feature","geometry":{"type":"Point","coordinates":[-2.66459,48.74848]},"properties":{"name":null,"country":"France","website":null,"opening_hours":null,"capacity":null,"phone":null,"address":null,"osmType":"node","osmId":670014758}},{"type":"Feature","geometry":{"type":"Point","coordinates":[-1.97835,48.67115]},"properties":{"name":"Phare de la Haize","country":"France","website":null,"opening_hours":null,"capacity":null,"phone":null,"address":null,"osmType":"node","osmId":898239164}},{"type":"Feature","geometry":{"type":"Point","coordinates":[-3.09093,48.8124]},"properties":{"name":"Amer et feu du Bodic","country":"France","website":null,"opening_hours":null,"capacity":null,"phone":null,"address":null,"osmType":"node","osmId":898239168}},{"type":"Feature","geometry":{"type":"Point","coordinates":[-1.95267,46.69373]},"properties":{"name":null,"country":"France","website":null,"opening_hours":null,"capacity":null,"phone":null,"address":null,"osmType":"node","osmId":1031302107}},{"type":"Feature","geometry":{"type":"Point","coordinates":[-1.09526,45.98294]},"properties":{"name":null,"country":"France","website":null,"opening_hours":null,"capacity":null,"phone":null,"address":null,"osmType":"node","osmId":1039327280}},{"type":"Feature","geometry":{"type":"Point","coordinates":[-3.15124,47.347]},"properties":{"name":null,"country":"France","website":null,"opening_hours":null,"capacity":null,"phone":null,"address":null,"osmType":"node","osmId":1191464192}},{"type":"Feature","geometry":{"type":"Point","coordinates":[-2.52429,49.45504]},"properties":{"name":"Castle Breakwater Light","country":"France","website":null,"opening_hours":null,"capacity":null,"phone":null,"address":null,"osmType":"node","osmId":1251964035}},{"type":"Feature","geometry":{"type":"Point","coordinates":[-2.53384,49.45538]},"properties":{"name":"Victoria Marina Lighthouse (Red Light)","country":"France","website":null,"opening_hours":null,"capacity":null,"phone":null,"address":null,"osmType":"node","osmId":1251970349}},{"type":"Feature","geometry":{"type":"Point","coordinates":[-2.5265,49.45625]},"properties":{"name":"White Rock Pier Light","country":"France","website":null,"opening_hours":null,"capacity":null,"phone":null,"address":null,"osmType":"node","osmId":1251974680}},{"type":"Feature","geometry":{"type":"Point","coordinates":[-2.53295,49.44832]},"properties":{"name":"Belvedere Light","country":"France","website":null,"opening_hours":null,"capacity":null,"phone":null,"address":null,"osmType":"node","osmId":1251978042}},{"type":"Feature","geometry":{"type":"Point","coordinates":[-2.51667,49.48296]},"properties":{"name":"Crocq Pier Light","country":"France","website":null,"opening_hours":null,"capacity":null,"phone":null,"address":null,"osmType":"node","osmId":1251979369}},{"type":"Feature","geometry":{"type":"Point","coordinates":[-2.51252,49.48152]},"properties":{"name":"St Sampsons South Pier Light","country":"France","website":null,"opening_hours":null,"capacity":null,"phone":null,"address":null,"osmType":"node","osmId":1251980669}},{"type":"Feature","geometry":{"type":"Point","coordinates":[-4.8493,48.03807]},"properties":{"name":"Men Brial","country":"France","website":null,"opening_hours":null,"capacity":null,"phone":null,"address":null,"osmType":"node","osmId":1258343816}},{"type":"Feature","geometry":{"type":"Point","coordinates":[-0.08695,49.29659]},"properties":{"name":"Houlgate","country":"France","website":null,"opening_hours":null,"capacity":null,"phone":null,"address":null,"osmType":"node","osmId":1262322746}},{"type":"Feature","geometry":{"type":"Point","coordinates":[-4.79539,48.07136]},"properties":{"name":"Phare de Tévennec","country":"France","website":null,"opening_hours":null,"capacity":null,"phone":null,"address":null,"osmType":"node","osmId":1269200222}},{"type":"Feature","geometry":{"type":"Point","coordinates":[-4.75924,48.47106]},"properties":{"name":"Phare de l'Aber Ildut","country":"France","website":null,"opening_hours":null,"capacity":null,"phone":null,"address":null,"osmType":"node","osmId":1269226414}},{"type":"Feature","geometry":{"type":"Point","coordinates":[-4.80516,48.52317]},"properties":{"name":"Phare du Four","country":"France","website":null,"opening_hours":null,"capacity":null,"phone":null,"address":null,"osmType":"node","osmId":1269267113}},{"type":"Feature","geometry":{"type":"Point","coordinates":[-4.62856,48.28018]},"properties":{"name":"Phare du Toulinguet","country":"France","website":null,"opening_hours":null,"capacity":null,"phone":null,"address":null,"osmType":"node","osmId":1269394756}},{"type":"Feature","geometry":{"type":"Point","coordinates":[-4.57584,48.61478]},"properties":{"name":"Phare de l'Île Wrac'h","country":"France","website":null,"opening_hours":null,"capacity":null,"phone":null,"address":null,"osmType":"node","osmId":1269413843}},{"type":"Feature","geometry":{"type":"Point","coordinates":[-2.34532,46.69367]},"properties":{"name":"Phare de La Meule","country":"France","website":null,"opening_hours":null,"capacity":null,"phone":null,"address":null,"osmType":"node","osmId":1319129856}},{"type":"Feature","geometry":{"type":"Point","coordinates":[-4.95472,48.39752]},"properties":{"name":null,"country":"France","website":null,"opening_hours":null,"capacity":null,"phone":null,"address":null,"osmType":"node","osmId":1324343839}},{"type":"Feature","geometry":{"type":"Point","coordinates":[-1.66028,43.39882]},"properties":{"name":"Feux de Sainte-Barbe (1870)","country":"France","website":null,"opening_hours":null,"capacity":null,"phone":null,"address":null,"osmType":"node","osmId":1370798980}},{"type":"Feature","geometry":{"type":"Point","coordinates":[-1.52445,43.52894]},"properties":{"name":null,"country":"France","website":null,"opening_hours":null,"capacity":null,"phone":null,"address":null,"osmType":"node","osmId":1370798999}},{"type":"Feature","geometry":{"type":"Point","coordinates":[-1.52351,43.53036]},"properties":{"name":null,"country":"France","website":null,"opening_hours":null,"capacity":null,"phone":null,"address":null,"osmType":"node","osmId":1370799000}},{"type":"Feature","geometry":{"type":"Point","coordinates":[-1.14978,46.15698]},"properties":{"name":null,"country":"France","website":null,"opening_hours":null,"capacity":null,"phone":null,"address":null,"osmType":"node","osmId":1370799200}},{"type":"Feature","geometry":{"type":"Point","coordinates":[-1.32195,46.18885]},"properties":{"name":null,"country":"France","website":null,"opening_hours":null,"capacity":null,"phone":null,"address":null,"osmType":"node","osmId":1370799313}},{"type":"Feature","geometry":{"type":"Point","coordinates":[-1.36471,46.20741]},"properties":{"name":null,"country":"France","website":null,"opening_hours":null,"capacity":null,"phone":null,"address":null,"osmType":"node","osmId":1370799316}},{"type":"Feature","geometry":{"type":"Point","coordinates":[-1.58668,46.26371]},"properties":{"name":"Phare des Baleineaux","country":"France","website":null,"opening_hours":null,"capacity":null,"phone":null,"address":null,"osmType":"node","osmId":1370799321}},{"type":"Feature","geometry":{"type":"Point","coordinates":[-1.20396,46.20141]},"properties":{"name":null,"country":"France","website":null,"opening_hours":null,"capacity":null,"phone":null,"address":null,"osmType":"node","osmId":1370799322}},{"type":"Feature","geometry":{"type":"Point","coordinates":[-1.7957,46.49386]},"properties":{"name":null,"country":"France","website":null,"opening_hours":null,"capacity":null,"phone":null,"address":null,"osmType":"node","osmId":1370799332}},{"type":"Feature","geometry":{"type":"Point","coordinates":[-2.34849,46.72647]},"properties":{"name":"Quai du Canada","country":"France","website":null,"opening_hours":null,"capacity":null,"phone":null,"address":null,"osmType":"node","osmId":1370799348}},{"type":"Feature","geometry":{"type":"Point","coordinates":[-2.34698,46.72968]},"properties":{"name":null,"country":"France","website":null,"opening_hours":null,"capacity":null,"phone":null,"address":null,"osmType":"node","osmId":1370799361}},{"type":"Feature","geometry":{"type":"Point","coordinates":[-2.38196,46.71748]},"properties":{"name":"Le Grand Phare","country":"France","website":null,"opening_hours":null,"capacity":null,"phone":null,"address":null,"osmType":"node","osmId":1370799380}},{"type":"Feature","geometry":{"type":"Point","coordinates":[-2.14239,46.88892]},"properties":{"name":"Phare de Fromentine","country":"France","website":null,"opening_hours":null,"capacity":null,"phone":null,"address":null,"osmType":"node","osmId":1370799382}},{"type":"Feature","geometry":{"type":"Point","coordinates":[-2.22098,47.01122]},"properties":{"name":"Phare des Dames","country":"France","website":null,"opening_hours":null,"capacity":null,"phone":null,"address":null,"osmType":"node","osmId":1370799400}},{"type":"Feature","geometry":{"type":"Point","coordinates":[-2.07446,46.94019]},"properties":{"name":null,"country":"France","website":null,"opening_hours":null,"capacity":null,"phone":null,"address":null,"osmType":"node","osmId":1370799401}},{"type":"Feature","geometry":{"type":"Point","coordinates":[-2.19759,47.27455]},"properties":{"name":null,"country":"France","website":null,"opening_hours":null,"capacity":null,"phone":null,"address":null,"osmType":"node","osmId":1370799453}},{"type":"Feature","geometry":{"type":"Point","coordinates":[-2.22757,47.25554]},"properties":{"name":"Phare de Villès Martin","country":"France","website":null,"opening_hours":null,"capacity":null,"phone":null,"address":null,"osmType":"node","osmId":1370799502}},{"type":"Feature","geometry":{"type":"Point","coordinates":[-2.26301,47.2423]},"properties":{"name":"Aiguillon","country":"France","website":null,"opening_hours":null,"capacity":null,"phone":null,"address":null,"osmType":"node","osmId":1370799521}},{"type":"Feature","geometry":{"type":"Point","coordinates":[-2.24968,47.25394]},"properties":{"name":null,"country":"France","website":null,"opening_hours":null,"capacity":null,"phone":null,"address":null,"osmType":"node","osmId":1370799530}},{"type":"Feature","geometry":{"type":"Point","coordinates":[-2.31891,47.21387]},"properties":{"name":"Phare du Grand Charpentier","country":"France","website":null,"opening_hours":null,"capacity":null,"phone":null,"address":null,"osmType":"node","osmId":1370799553}},{"type":"Feature","geometry":{"type":"Point","coordinates":[-2.35998,47.04261]},"properties":{"name":"Phares de l'Île du Pilier","country":"France","website":null,"opening_hours":null,"capacity":null,"phone":null,"address":null,"osmType":"node","osmId":1370799586}},{"type":"Feature","geometry":{"type":"Point","coordinates":[-2.46784,47.17714]},"properties":{"name":"Phare de la Banche","country":"France","website":null,"opening_hours":null,"capacity":null,"phone":null,"address":null,"osmType":"node","osmId":1370799631}},{"type":"Feature","geometry":{"type":"Point","coordinates":[-2.50188,47.5163]},"properties":{"name":"Phare de Pen Lan","country":"France","website":null,"opening_hours":null,"capacity":null,"phone":null,"address":null,"osmType":"node","osmId":1370799811}},{"type":"Feature","geometry":{"type":"Point","coordinates":[-2.51198,47.51774]},"properties":{"name":null,"country":"France","website":null,"opening_hours":null,"capacity":null,"phone":null,"address":null,"osmType":"node","osmId":1370799835}},{"type":"Feature","geometry":{"type":"Point","coordinates":[-2.87472,47.34438]},"properties":{"name":null,"country":"France","website":null,"opening_hours":null,"capacity":null,"phone":null,"address":null,"osmType":"node","osmId":1370799963}},{"type":"Feature","geometry":{"type":"Point","coordinates":[-2.95561,47.39281]},"properties":{"name":null,"country":"France","website":null,"opening_hours":null,"capacity":null,"phone":null,"address":null,"osmType":"node","osmId":1370799972}},{"type":"Feature","geometry":{"type":"Point","coordinates":[-3.04582,47.45739]},"properties":{"name":"Phare de la Teignouse","country":"France","website":null,"opening_hours":null,"capacity":null,"phone":null,"address":null,"osmType":"node","osmId":1370799982}},{"type":"Feature","geometry":{"type":"Point","coordinates":[-3.12418,47.47969]},"properties":{"name":"Phare de Port-Maria","country":"France","website":null,"opening_hours":null,"capacity":null,"phone":null,"address":null,"osmType":"node","osmId":1370800029}},{"type":"Feature","geometry":{"type":"Point","coordinates":[-3.21662,47.37417]},"properties":{"name":null,"country":"France","website":null,"opening_hours":null,"capacity":null,"phone":null,"address":null,"osmType":"node","osmId":1370800058}},{"type":"Feature","geometry":{"type":"Point","coordinates":[-3.15065,47.34729]},"properties":{"name":null,"country":"France","website":null,"opening_hours":null,"capacity":null,"phone":null,"address":null,"osmType":"node","osmId":1370800065}},{"type":"Feature","geometry":{"type":"Point","coordinates":[-3.21734,47.375]},"properties":{"name":null,"country":"France","website":null,"opening_hours":null,"capacity":null,"phone":null,"address":null,"osmType":"node","osmId":1370800067}},{"type":"Feature","geometry":{"type":"Point","coordinates":[-3.36668,47.71341]},"properties":{"name":"Le cochon","country":"France","website":null,"opening_hours":null,"capacity":null,"phone":null,"address":null,"osmType":"node","osmId":1370800165}},{"type":"Feature","geometry":{"type":"Point","coordinates":[-3.36777,47.70968]},"properties":{"name":"La jument","country":"France","website":null,"opening_hours":null,"capacity":null,"phone":null,"address":null,"osmType":"node","osmId":1370800167}},{"type":"Feature","geometry":{"type":"Point","coordinates":[-3.60753,47.77469]},"properties":{"name":"Doëlan Amont","country":"France","website":null,"opening_hours":null,"capacity":null,"phone":null,"address":null,"osmType":"node","osmId":1370800368}},{"type":"Feature","geometry":{"type":"Point","coordinates":[-3.60857,47.77187]},"properties":{"name":"Doëlan Aval","country":"France","website":null,"opening_hours":null,"capacity":null,"phone":null,"address":null,"osmType":"node","osmId":1370800372}},{"type":"Feature","geometry":{"type":"Point","coordinates":[-3.91813,47.86928]},"properties":{"name":null,"country":"France","website":null,"opening_hours":null,"capacity":null,"phone":null,"address":null,"osmType":"node","osmId":1370800642}},{"type":"Feature","geometry":{"type":"Point","coordinates":[-3.9713,47.89146]},"properties":{"name":null,"country":"France","website":null,"opening_hours":null,"capacity":null,"phone":null,"address":null,"osmType":"node","osmId":1370800688}},{"type":"Feature","geometry":{"type":"Point","coordinates":[-4.11284,47.87484]},"properties":{"name":"Phare de Bénodet","country":"France","website":null,"opening_hours":null,"capacity":null,"phone":null,"address":null,"osmType":"node","osmId":1370800757}},{"type":"Feature","geometry":{"type":"Point","coordinates":[-4.11303,47.86431]},"properties":{"name":"Phare de Sainte-Marine","country":"France","website":null,"opening_hours":null,"capacity":null,"phone":null,"address":null,"osmType":"node","osmId":1370800781}},{"type":"Feature","geometry":{"type":"Point","coordinates":[-4.28477,47.7918]},"properties":{"name":"Phare du Guilvinec","country":"France","website":null,"opening_hours":null,"capacity":null,"phone":null,"address":null,"osmType":"node","osmId":1370800988}},{"type":"Feature","geometry":{"type":"Point","coordinates":[-4.46433,47.98488]},"properties":{"name":null,"country":"France","website":null,"opening_hours":null,"capacity":null,"phone":null,"address":null,"osmType":"node","osmId":1370801156}},{"type":"Feature","geometry":{"type":"Point","coordinates":[-4.56558,48.00073]},"properties":{"name":"phare de la Pointe de Lervily","country":"France","website":null,"opening_hours":null,"capacity":null,"phone":null,"address":null,"osmType":"node","osmId":1370801164}},{"type":"Feature","geometry":{"type":"Point","coordinates":[-4.54083,48.0092]},"properties":{"name":"Phare du Raoulic","country":"France","website":null,"opening_hours":null,"capacity":null,"phone":null,"address":null,"osmType":"node","osmId":1370801173}},{"type":"Feature","geometry":{"type":"Point","coordinates":[-4.534,48.35828]},"properties":{"name":"Phare du Portzic","country":"France","website":null,"opening_hours":null,"capacity":null,"phone":null,"address":null,"osmType":"node","osmId":1370801418}},{"type":"Feature","geometry":{"type":"Point","coordinates":[-4.61422,48.33664]},"properties":{"name":"Phare du Petit Minou","country":"France","website":null,"opening_hours":null,"capacity":null,"phone":null,"address":null,"osmType":"node","osmId":1370801434}},{"type":"Feature","geometry":{"type":"Point","coordinates":[-4.9145,48.31119]},"properties":{"name":"Phare des Pierres-Noires","country":"France","website":null,"opening_hours":null,"capacity":null,"phone":null,"address":null,"osmType":"node","osmId":1370801478}},{"type":"Feature","geometry":{"type":"Point","coordinates":[-4.77709,48.32216]},"properties":{"name":"Tourelle des Vieux Moines","country":"France","website":null,"opening_hours":null,"capacity":null,"phone":null,"address":null,"osmType":"node","osmId":1370801481}},{"type":"Feature","geometry":{"type":"Point","coordinates":[-4.8069,48.36559]},"properties":{"name":null,"country":"France","website":null,"opening_hours":null,"capacity":null,"phone":null,"address":null,"osmType":"node","osmId":1370801484}},{"type":"Feature","geometry":{"type":"Point","coordinates":[-4.7935,48.4148]},"properties":{"name":"Feu de Corsen","country":"France","website":null,"opening_hours":null,"capacity":null,"phone":null,"address":null,"osmType":"node","osmId":1370801498}},{"type":"Feature","geometry":{"type":"Point","coordinates":[-4.77892,48.42351]},"properties":{"name":"Phare de Trézien","country":"France","website":null,"opening_hours":null,"capacity":null,"phone":null,"address":null,"osmType":"node","osmId":1370801507}},{"type":"Feature","geometry":{"type":"Point","coordinates":[-4.89842,48.42881]},"properties":{"name":"Tourelle du Faix","country":"France","website":null,"opening_hours":null,"capacity":null,"phone":null,"address":null,"osmType":"node","osmId":1370801517}},{"type":"Feature","geometry":{"type":"Point","coordinates":[-5.022,48.46607]},"properties":{"name":null,"country":"France","website":null,"opening_hours":null,"capacity":null,"phone":null,"address":null,"osmType":"node","osmId":1370801550}},{"type":"Feature","geometry":{"type":"Point","coordinates":[-2.19692,47.27126]},"properties":{"name":null,"country":"France","website":null,"opening_hours":null,"capacity":null,"phone":null,"address":null,"osmType":"node","osmId":1374266602}},{"type":"Feature","geometry":{"type":"Point","coordinates":[-3.30883,48.83675]},"properties":{"name":"Port Blanc","country":"France","website":null,"opening_hours":null,"capacity":null,"phone":null,"address":null,"osmType":"node","osmId":1377987610}},{"type":"Feature","geometry":{"type":"Point","coordinates":[-2.81412,49.10508]},"properties":{"name":"Phare des Roches-Douvres","country":"France","website":null,"opening_hours":null,"capacity":null,"phone":null,"address":null,"osmType":"node","osmId":1378041353}},{"type":"Feature","geometry":{"type":"Point","coordinates":[-4.02776,47.77458]},"properties":{"name":"Phare des Moutons","country":"France","website":null,"opening_hours":null,"capacity":null,"phone":null,"address":null,"osmType":"node","osmId":1395067584}},{"type":"Feature","geometry":{"type":"Point","coordinates":[-4.54678,48.01261]},"properties":{"name":"Trescadec","country":"France","website":null,"opening_hours":null,"capacity":null,"phone":null,"address":null,"osmType":"node","osmId":1509676892}},{"type":"Feature","geometry":{"type":"Point","coordinates":[-1.14652,49.49778]},"properties":{"name":null,"country":"France","website":null,"opening_hours":null,"capacity":null,"phone":null,"address":null,"osmType":"node","osmId":1543873793}},{"type":"Feature","geometry":{"type":"Point","coordinates":[-1.25687,49.58637]},"properties":{"name":"Phare de Saint-Vaast-la-Hougue","country":"France","website":null,"opening_hours":null,"capacity":null,"phone":null,"address":null,"osmType":"node","osmId":1543873862}},{"type":"Feature","geometry":{"type":"Point","coordinates":[-1.59872,49.67135]},"properties":{"name":null,"country":"France","website":null,"opening_hours":null,"capacity":null,"phone":null,"address":null,"osmType":"node","osmId":1543874609}},{"type":"Feature","geometry":{"type":"Point","coordinates":[-2.16424,49.72913]},"properties":{"name":"Alderney Lighthouse","country":"France","website":null,"opening_hours":null,"capacity":null,"phone":null,"address":null,"osmType":"node","osmId":1543874832}},{"type":"Feature","geometry":{"type":"Point","coordinates":[-2.17706,49.73247]},"properties":{"name":null,"country":"France","website":null,"opening_hours":null,"capacity":null,"phone":null,"address":null,"osmType":"node","osmId":1543874845}},{"type":"Feature","geometry":{"type":"Point","coordinates":[-2.37706,49.72198]},"properties":{"name":null,"country":"France","website":null,"opening_hours":null,"capacity":null,"phone":null,"address":null,"osmType":"node","osmId":1543874873}},{"type":"Feature","geometry":{"type":"Point","coordinates":[-2.34559,49.43645]},"properties":{"name":"Point Robert","country":"France","website":null,"opening_hours":null,"capacity":null,"phone":null,"address":null,"osmType":"node","osmId":1543874919}},{"type":"Feature","geometry":{"type":"Point","coordinates":[-2.48563,49.51382]},"properties":{"name":"Platte Fougère","country":"France","website":"http://www.harbours.gg/CHttpHandler.ashx?id=104962&p=0","opening_hours":null,"capacity":null,"phone":null,"address":null,"osmType":"node","osmId":1543875382}},{"type":"Feature","geometry":{"type":"Point","coordinates":[-2.70237,49.43497]},"properties":{"name":"Les Hanois lighthouse","country":"France","website":null,"opening_hours":null,"capacity":null,"phone":null,"address":null,"osmType":"node","osmId":1543875388}},{"type":"Feature","geometry":{"type":"Point","coordinates":[-2.15894,49.26005]},"properties":{"name":"Sorel Point Lighthouse","country":"France","website":null,"opening_hours":null,"capacity":null,"phone":null,"address":null,"osmType":"node","osmId":1543875420}},{"type":"Feature","geometry":{"type":"Point","coordinates":[-2.05992,49.17158]},"properties":{"name":null,"country":"France","website":null,"opening_hours":null,"capacity":null,"phone":null,"address":null,"osmType":"node","osmId":1543875453}},{"type":"Feature","geometry":{"type":"Point","coordinates":[-2.08481,49.16931]},"properties":{"name":null,"country":"France","website":null,"opening_hours":null,"capacity":null,"phone":null,"address":null,"osmType":"node","osmId":1543875461}},{"type":"Feature","geometry":{"type":"Point","coordinates":[-1.63445,49.0017]},"properties":{"name":"Tourelle du Ronquet","country":"France","website":null,"opening_hours":null,"capacity":null,"phone":null,"address":null,"osmType":"node","osmId":1543875767}},{"type":"Feature","geometry":{"type":"Point","coordinates":[-1.72258,48.89154]},"properties":{"name":"Le Pignon","country":"France","website":null,"opening_hours":null,"capacity":null,"phone":null,"address":null,"osmType":"node","osmId":1543876057}},{"type":"Feature","geometry":{"type":"Point","coordinates":[-1.81508,48.72946]},"properties":{"name":"Phare de la Pierre-de-Herpin","country":"France","website":null,"opening_hours":null,"capacity":null,"phone":null,"address":null,"osmType":"node","osmId":1543876228}},{"type":"Feature","geometry":{"type":"Point","coordinates":[-2.03183,48.64211]},"properties":{"name":"Môle des Noires","country":"France","website":null,"opening_hours":null,"capacity":null,"phone":null,"address":null,"osmType":"node","osmId":1543876547}},{"type":"Feature","geometry":{"type":"Point","coordinates":[-2.81527,48.60117]},"properties":{"name":null,"country":"France","website":null,"opening_hours":null,"capacity":null,"phone":null,"address":null,"osmType":"node","osmId":1543880875}},{"type":"Feature","geometry":{"type":"Point","coordinates":[-2.8083,48.66651]},"properties":{"name":"Phare de l'île Harbour","country":"France","website":null,"opening_hours":null,"capacity":null,"phone":null,"address":null,"osmType":"node","osmId":1543880944}},{"type":"Feature","geometry":{"type":"Point","coordinates":[-2.94034,48.77951]},"properties":{"name":"Phare de L'Ost-Pic","country":"France","website":null,"opening_hours":null,"capacity":null,"phone":null,"address":null,"osmType":"node","osmId":1543880956}},{"type":"Feature","geometry":{"type":"Point","coordinates":[-3.02585,48.79133]},"properties":{"name":"Porz Don","country":"France","website":null,"opening_hours":null,"capacity":null,"phone":null,"address":null,"osmType":"node","osmId":1543881599}},{"type":"Feature","geometry":{"type":"Point","coordinates":[-3.05394,48.83714]},"properties":{"name":"Phare de la Croix","country":"France","website":null,"opening_hours":null,"capacity":null,"phone":null,"address":null,"osmType":"node","osmId":1543882146}},{"type":"Feature","geometry":{"type":"Point","coordinates":[-2.98588,48.86536]},"properties":{"name":"Phare du Paon","country":"France","website":null,"opening_hours":null,"capacity":null,"phone":null,"address":null,"osmType":"node","osmId":1543883919}},{"type":"Feature","geometry":{"type":"Point","coordinates":[-2.92055,48.89168]},"properties":{"name":null,"country":"France","website":null,"opening_hours":null,"capacity":null,"phone":null,"address":null,"osmType":"node","osmId":1543883928}},{"type":"Feature","geometry":{"type":"Point","coordinates":[-3.17681,48.85577]},"properties":{"name":null,"country":"France","website":null,"opening_hours":null,"capacity":null,"phone":null,"address":null,"osmType":"node","osmId":1543884603}},{"type":"Feature","geometry":{"type":"Point","coordinates":[-3.47071,48.78015]},"properties":{"name":"Phare de Ker Prigent","country":"France","website":null,"opening_hours":null,"capacity":null,"phone":null,"address":null,"osmType":"node","osmId":1543885633}},{"type":"Feature","geometry":{"type":"Point","coordinates":[-3.64661,48.87146]},"properties":{"name":"Phare des Triagoz","country":"France","website":null,"opening_hours":null,"capacity":null,"phone":null,"address":null,"osmType":"node","osmId":1543887084}},{"type":"Feature","geometry":{"type":"Point","coordinates":[-3.54859,48.7387]},"properties":{"name":"Phare de Beg Léguer","country":"France","website":null,"opening_hours":null,"capacity":null,"phone":null,"address":null,"osmType":"node","osmId":1543887205}},{"type":"Feature","geometry":{"type":"Point","coordinates":[-3.8889,48.67359]},"properties":{"name":"Phare de l'île Louët","country":"France","website":null,"opening_hours":null,"capacity":null,"phone":null,"address":null,"osmType":"node","osmId":1543887396}},{"type":"Feature","geometry":{"type":"Point","coordinates":[-0.93198,45.43951]},"properties":{"name":"Le Phare de Richard","country":"France","website":"https://www.phare-richard.com/","opening_hours":"Mar-Jun We-Su 14:30-18:30; Jul-Aug Mo-Su 11:00-19:00; Sep-Oct We-Su 14:00-18:00","capacity":null,"phone":null,"address":null,"osmType":"node","osmId":1562660597}},{"type":"Feature","geometry":{"type":"Point","coordinates":[-1.79191,43.39193]},"properties":{"name":"Cabo Higuer","country":"France","website":null,"opening_hours":null,"capacity":null,"phone":null,"address":null,"osmType":"node","osmId":1572817975}},{"type":"Feature","geometry":{"type":"Point","coordinates":[-1.80684,49.37353]},"properties":{"name":"Office de Tourisme du Cotentin","country":"France","website":"http://pharedecarteret.fr/","opening_hours":"Mo-Sa 10:30-12:30, 14:00-18:00; Su 14:00-18:00","capacity":null,"phone":"+33 805 32 02 00","address":null,"osmType":"node","osmId":1841690501}},{"type":"Feature","geometry":{"type":"Point","coordinates":[-4.34642,48.67787]},"properties":{"name":"Phare de Pontusval","country":"France","website":null,"opening_hours":null,"capacity":null,"phone":null,"address":null,"osmType":"node","osmId":1865624218}},{"type":"Feature","geometry":{"type":"Point","coordinates":[-1.66442,43.3994]},"properties":{"name":"Feu de Sainte Barbe","country":"France","website":null,"opening_hours":null,"capacity":null,"phone":null,"address":null,"osmType":"node","osmId":2013114667}},{"type":"Feature","geometry":{"type":"Point","coordinates":[-1.95425,46.69099]},"properties":{"name":null,"country":"France","website":null,"opening_hours":null,"capacity":null,"phone":null,"address":null,"osmType":"node","osmId":2096326600}},{"type":"Feature","geometry":{"type":"Point","coordinates":[-4.28195,47.79195]},"properties":{"name":"Feu intermédiaire \"Men Faoutès\"","country":"France","website":null,"opening_hours":null,"capacity":null,"phone":null,"address":null,"osmType":"node","osmId":2203260712}},{"type":"Feature","geometry":{"type":"Point","coordinates":[-1.94817,46.69681]},"properties":{"name":"Tour Joséphine","country":"France","website":null,"opening_hours":null,"capacity":null,"phone":null,"address":null,"osmType":"node","osmId":2377179402}},{"type":"Feature","geometry":{"type":"Point","coordinates":[-1.09505,44.97809]},"properties":{"name":"Phare de Lacanau","country":"France","website":null,"opening_hours":null,"capacity":null,"phone":null,"address":null,"osmType":"node","osmId":2436908555}},{"type":"Feature","geometry":{"type":"Point","coordinates":[-3.00487,48.85755]},"properties":{"name":"Phare du Rosédo","country":"France","website":null,"opening_hours":null,"capacity":null,"phone":null,"address":null,"osmType":"node","osmId":2715566908}},{"type":"Feature","geometry":{"type":"Point","coordinates":[-2.09671,48.67438]},"properties":{"name":"Tourelle de la Pierre des Portes","country":"France","website":null,"opening_hours":null,"capacity":null,"phone":null,"address":null,"osmType":"node","osmId":2756304036}},{"type":"Feature","geometry":{"type":"Point","coordinates":[-2.83492,47.32124]},"properties":{"name":"Phare des Grands Cardinaux","country":"France","website":null,"opening_hours":null,"capacity":null,"phone":null,"address":null,"osmType":"node","osmId":2883454480}},{"type":"Feature","geometry":{"type":"Point","coordinates":[-4.07483,48.68919]},"properties":{"name":"Phare de Moguériec","country":"France","website":null,"opening_hours":null,"capacity":null,"phone":null,"address":null,"osmType":"node","osmId":3059036252}},{"type":"Feature","geometry":{"type":"Point","coordinates":[-1.83952,48.89483]},"properties":{"name":null,"country":"France","website":null,"opening_hours":null,"capacity":null,"phone":null,"address":null,"osmType":"node","osmId":3329863421}},{"type":"Feature","geometry":{"type":"Point","coordinates":[-2.02824,48.64032]},"properties":{"name":null,"country":"France","website":null,"opening_hours":null,"capacity":null,"phone":null,"address":null,"osmType":"node","osmId":3345465534}},{"type":"Feature","geometry":{"type":"Point","coordinates":[-1.21003,44.37508]},"properties":{"name":null,"country":"France","website":null,"opening_hours":null,"capacity":null,"phone":null,"address":null,"osmType":"node","osmId":3627189883}},{"type":"Feature","geometry":{"type":"Point","coordinates":[-3.44292,48.79867]},"properties":{"name":"Le Colombier","country":"France","website":null,"opening_hours":null,"capacity":null,"phone":null,"address":null,"osmType":"node","osmId":3886034178}},{"type":"Feature","geometry":{"type":"Point","coordinates":[-2.90137,47.54085]},"properties":{"name":null,"country":"France","website":null,"opening_hours":null,"capacity":null,"phone":null,"address":null,"osmType":"node","osmId":4115865836}},{"type":"Feature","geometry":{"type":"Point","coordinates":[-2.90196,47.54124]},"properties":{"name":null,"country":"France","website":null,"opening_hours":null,"capacity":null,"phone":null,"address":null,"osmType":"node","osmId":4115865844}},{"type":"Feature","geometry":{"type":"Point","coordinates":[-1.17703,46.01278]},"properties":{"name":"Sémaphore","country":"France","website":null,"opening_hours":null,"capacity":null,"phone":null,"address":null,"osmType":"node","osmId":4319968082}},{"type":"Feature","geometry":{"type":"Point","coordinates":[-2.21679,47.25015]},"properties":{"name":"Balise des Morées","country":"France","website":null,"opening_hours":null,"capacity":null,"phone":null,"address":null,"osmType":"node","osmId":4965926371}},{"type":"Feature","geometry":{"type":"Point","coordinates":[-1.68654,43.39507]},"properties":{"name":"Phare de Socoa","country":"France","website":null,"opening_hours":null,"capacity":null,"phone":null,"address":null,"osmType":"node","osmId":5422603139}},{"type":"Feature","geometry":{"type":"Point","coordinates":[-3.95288,47.72114]},"properties":{"name":"Phare et fort de Penfret","country":"France","website":null,"opening_hours":null,"capacity":null,"phone":null,"address":null,"osmType":"node","osmId":5907022932}},{"type":"Feature","geometry":{"type":"Point","coordinates":[-1.77026,48.9114]},"properties":{"name":null,"country":"France","website":null,"opening_hours":null,"capacity":null,"phone":null,"address":null,"osmType":"node","osmId":5918806900}},{"type":"Feature","geometry":{"type":"Point","coordinates":[-4.54119,48.01103]},"properties":{"name":"Mât FENOUX","country":"France","website":null,"opening_hours":null,"capacity":null,"phone":null,"address":null,"osmType":"node","osmId":6281938398}},{"type":"Feature","geometry":{"type":"Point","coordinates":[-0.49247,44.16698]},"properties":{"name":null,"country":"France","website":null,"opening_hours":null,"capacity":null,"phone":null,"address":null,"osmType":"node","osmId":6727421339}},{"type":"Feature","geometry":{"type":"Point","coordinates":[-3.48998,48.87872]},"properties":{"name":"Phare des Sept-Îles","country":"France","website":null,"opening_hours":null,"capacity":null,"phone":null,"address":null,"osmType":"node","osmId":6793206641}},{"type":"Feature","geometry":{"type":"Point","coordinates":[-1.67772,46.44104]},"properties":{"name":null,"country":"France","website":null,"opening_hours":null,"capacity":null,"phone":null,"address":null,"osmType":"node","osmId":6942501052}},{"type":"Feature","geometry":{"type":"Point","coordinates":[-3.12186,47.47569]},"properties":{"name":null,"country":"France","website":null,"opening_hours":null,"capacity":null,"phone":null,"address":null,"osmType":"node","osmId":7095715731}},{"type":"Feature","geometry":{"type":"Point","coordinates":[-3.12269,47.4764]},"properties":{"name":"Port Maria Mole Est","country":"France","website":null,"opening_hours":null,"capacity":null,"phone":null,"address":null,"osmType":"node","osmId":7095715732}},{"type":"Feature","geometry":{"type":"Point","coordinates":[-4.3743,47.79782]},"properties":{"name":"Ancien phare de Penmarc'h nouvelle coupole","country":"France","website":null,"opening_hours":null,"capacity":null,"phone":null,"address":null,"osmType":"node","osmId":9121274190}},{"type":"Feature","geometry":{"type":"Point","coordinates":[-1.80477,46.48982]},"properties":{"name":"Armandèche","country":"France","website":null,"opening_hours":null,"capacity":null,"phone":null,"address":null,"osmType":"node","osmId":9487144663}},{"type":"Feature","geometry":{"type":"Point","coordinates":[-4.70428,48.56403]},"properties":{"name":"Feu de la Pointe de Penvir","country":"France","website":null,"opening_hours":null,"capacity":null,"phone":null,"address":"Pointe de Penvir","osmType":"node","osmId":9700736098}},{"type":"Feature","geometry":{"type":"Point","coordinates":[-1.06587,45.56853]},"properties":{"name":"Phare de la Grave","country":"France","website":null,"opening_hours":null,"capacity":null,"phone":null,"address":null,"osmType":"node","osmId":9904647269}},{"type":"Feature","geometry":{"type":"Point","coordinates":[-4.85605,48.03215]},"properties":{"name":"Le Guéveur","country":"France","website":null,"opening_hours":null,"capacity":null,"phone":null,"address":null,"osmType":"node","osmId":9997417260}},{"type":"Feature","geometry":{"type":"Point","coordinates":[-3.47285,48.82527]},"properties":{"name":"Sémaphore de Ploumanac'h","country":"France","website":null,"opening_hours":null,"capacity":null,"phone":null,"address":null,"osmType":"node","osmId":11016499039}},{"type":"Feature","geometry":{"type":"Point","coordinates":[-4.81422,48.02377]},"properties":{"name":"Les Chats","country":"France","website":null,"opening_hours":null,"capacity":null,"phone":null,"address":null,"osmType":"node","osmId":11035984140}},{"type":"Feature","geometry":{"type":"Point","coordinates":[-1.16825,46.14864]},"properties":{"name":null,"country":"France","website":null,"opening_hours":null,"capacity":null,"phone":null,"address":null,"osmType":"node","osmId":11076245058}},{"type":"Feature","geometry":{"type":"Point","coordinates":[-1.42711,46.34256]},"properties":{"name":null,"country":"France","website":null,"opening_hours":null,"capacity":null,"phone":null,"address":null,"osmType":"node","osmId":11196366109}},{"type":"Feature","geometry":{"type":"Point","coordinates":[-1.09739,45.99687]},"properties":{"name":null,"country":"France","website":null,"opening_hours":null,"capacity":null,"phone":null,"address":null,"osmType":"node","osmId":11389881536}},{"type":"Feature","geometry":{"type":"Point","coordinates":[-1.09405,45.9846]},"properties":{"name":null,"country":"France","website":null,"opening_hours":null,"capacity":null,"phone":null,"address":null,"osmType":"node","osmId":11691202598}},{"type":"Feature","geometry":{"type":"Point","coordinates":[-1.09477,45.98404]},"properties":{"name":null,"country":"France","website":null,"opening_hours":null,"capacity":null,"phone":null,"address":null,"osmType":"node","osmId":11780958007}},{"type":"Feature","geometry":{"type":"Point","coordinates":[-1.1187,46.00502]},"properties":{"name":null,"country":"France","website":null,"opening_hours":null,"capacity":null,"phone":null,"address":null,"osmType":"node","osmId":11918045878}},{"type":"Feature","geometry":{"type":"Point","coordinates":[-5.12904,48.4592]},"properties":{"name":"Phare du Créac'h","country":"France","website":null,"opening_hours":null,"capacity":null,"phone":null,"address":null,"osmType":"node","osmId":13138447296}},{"type":"Feature","geometry":{"type":"Point","coordinates":[-2.36,47.04262]},"properties":{"name":null,"country":"France","website":null,"opening_hours":null,"capacity":null,"phone":null,"address":null,"osmType":"node","osmId":13159320764}},{"type":"Feature","geometry":{"type":"Point","coordinates":[-2.18272,47.23364]},"properties":{"name":null,"country":"France","website":null,"opening_hours":null,"capacity":null,"phone":null,"address":null,"osmType":"node","osmId":13236941803}},{"type":"Feature","geometry":{"type":"Point","coordinates":[-4.77089,48.32987]},"properties":{"name":"Phare de Saint-Mathieu","country":"France","website":null,"opening_hours":null,"capacity":null,"phone":null,"address":null,"osmType":"way","osmId":33092586}},{"type":"Feature","geometry":{"type":"Point","coordinates":[-4.37276,47.7982]},"properties":{"name":"Phare d'Eckmühl","country":"France","website":null,"opening_hours":null,"capacity":null,"phone":null,"address":null,"osmType":"way","osmId":33779845}},{"type":"Feature","geometry":{"type":"Point","coordinates":[-1.26589,49.69644]},"properties":{"name":"Phare de Gatteville","country":"France","website":"https://www.phare-de-gatteville.fr/","opening_hours":"Dec-Jan 10:00-12:00,14:00-16:00;Feb 10:00-16:30;Mar,Oct 10:00-17:00;Apr 10:00-17:30;May,Jun,Sep 10:00-18:00;Jul-Aug 10:00-18:30;Nov 10:00-12:00,14:00-16:30;Dec 25 off;Jan 1 off;May 1 off;Oct 14-17 10:00-12:00,14:00-17:00","capacity":null,"phone":"+33233231797","address":null,"osmType":"way","osmId":39591645}},{"type":"Feature","geometry":{"type":"Point","coordinates":[-3.95288,47.72116]},"properties":{"name":"Phare de Penfret","country":"France","website":null,"opening_hours":null,"capacity":null,"phone":null,"address":null,"osmType":"way","osmId":40024237}},{"type":"Feature","geometry":{"type":"Point","coordinates":[-4.61421,48.33664]},"properties":{"name":"Phare du Petit Minou","country":"France","website":null,"opening_hours":null,"capacity":null,"phone":null,"address":null,"osmType":"way","osmId":42619356}},{"type":"Feature","geometry":{"type":"Point","coordinates":[-4.77894,48.42352]},"properties":{"name":"Phare de Trézien","country":"France","website":null,"opening_hours":null,"capacity":null,"phone":null,"address":null,"osmType":"way","osmId":42960770}},{"type":"Feature","geometry":{"type":"Point","coordinates":[-4.76354,48.34252]},"properties":{"name":"Phare de Lochrist","country":"France","website":null,"opening_hours":null,"capacity":null,"phone":null,"address":null,"osmType":"way","osmId":53715265}},{"type":"Feature","geometry":{"type":"Point","coordinates":[-4.55604,48.5945]},"properties":{"name":"Saint-Antoine","country":"France","website":null,"opening_hours":null,"capacity":null,"phone":null,"address":null,"osmType":"way","osmId":53922924}},{"type":"Feature","geometry":{"type":"Point","coordinates":[-4.49682,48.21957]},"properties":{"name":"Phare du Kador","country":"France","website":null,"opening_hours":null,"capacity":null,"phone":null,"address":null,"osmType":"way","osmId":53990322}},{"type":"Feature","geometry":{"type":"Point","coordinates":[-4.33074,48.67676]},"properties":{"name":"Sémaphore de Pointe Bilou","country":"France","website":null,"opening_hours":null,"capacity":null,"phone":null,"address":null,"osmType":"way","osmId":54000942}},{"type":"Feature","geometry":{"type":"Point","coordinates":[-4.34636,48.67787]},"properties":{"name":"Phare de Pontusval","country":"France","website":null,"opening_hours":null,"capacity":null,"phone":null,"address":null,"osmType":"way","osmId":54001309}},{"type":"Feature","geometry":{"type":"Point","coordinates":[-2.00387,48.6266]},"properties":{"name":"Phare de la Balue","country":"France","website":null,"opening_hours":null,"capacity":null,"phone":null,"address":null,"osmType":"way","osmId":54974026}},{"type":"Feature","geometry":{"type":"Point","coordinates":[-2.11542,47.11033]},"properties":{"name":"Phare de la Noëveillard","country":"France","website":null,"opening_hours":null,"capacity":null,"phone":null,"address":null,"osmType":"way","osmId":55115925}},{"type":"Feature","geometry":{"type":"Point","coordinates":[-5.0567,48.47455]},"properties":{"name":"Phare du Stiff","country":"France","website":null,"opening_hours":null,"capacity":null,"phone":null,"address":null,"osmType":"way","osmId":63637502}},{"type":"Feature","geometry":{"type":"Point","coordinates":[-3.22711,47.31085]},"properties":{"name":"Phare de Goulphar","country":"France","website":null,"opening_hours":null,"capacity":null,"phone":null,"address":null,"osmType":"way","osmId":63697430}},{"type":"Feature","geometry":{"type":"Point","coordinates":[-3.25175,47.38856]},"properties":{"name":"Phare des Poulains","country":"France","website":null,"opening_hours":null,"capacity":null,"phone":null,"address":null,"osmType":"way","osmId":63791196}},{"type":"Feature","geometry":{"type":"Point","coordinates":[-3.21875,47.37291]},"properties":{"name":null,"country":"France","website":null,"opening_hours":null,"capacity":null,"phone":null,"address":null,"osmType":"way","osmId":63793038}},{"type":"Feature","geometry":{"type":"Point","coordinates":[-2.0326,47.29037]},"properties":{"name":"Phare de la Chaussée Neuve","country":"France","website":null,"opening_hours":null,"capacity":null,"phone":null,"address":null,"osmType":"way","osmId":64856384}},{"type":"Feature","geometry":{"type":"Point","coordinates":[-2.14239,46.88892]},"properties":{"name":"Phare métallique de Fromentine","country":"France","website":null,"opening_hours":null,"capacity":null,"phone":null,"address":null,"osmType":"way","osmId":65005575}},{"type":"Feature","geometry":{"type":"Point","coordinates":[-3.88539,48.63678]},"properties":{"name":"Phare de la Lande","country":"France","website":null,"opening_hours":null,"capacity":null,"phone":null,"address":null,"osmType":"way","osmId":71751839}},{"type":"Feature","geometry":{"type":"Point","coordinates":[-1.5539,43.49377]},"properties":{"name":"Phare de la Pointe Saint-Martin","country":"France","website":"https://tourisme.biarritz.fr/fr/que-faire/sites-et-musees/le-pharedecouvrir","opening_hours":"Sa,Su 14:00-17:00; Mar Su[-1]-Oct Su[-1] Sa,Su 14:00-18:00; PH 14:00-17:00; Mar Su[-1]-Oct Su[-1] PH 14:00-18:00; May-Jun,Sep 14:00-18:00; Jul-Aug 10:30-13:00,14:00-19:00","capacity":null,"phone":"+33 5 59 22 37 10","address":null,"osmType":"way","osmId":71996554}},{"type":"Feature","geometry":{"type":"Point","coordinates":[-3.98049,48.72255]},"properties":{"name":"Phare de Roscoff","country":"France","website":null,"opening_hours":null,"capacity":null,"phone":null,"address":null,"osmType":"way","osmId":72072235}},{"type":"Feature","geometry":{"type":"Point","coordinates":[-4.02691,48.74532]},"properties":{"name":"Phare de l'île de Batz","country":"France","website":"http://www.iledebatz.com/découvrir/visite-du-phare","opening_hours":null,"capacity":null,"phone":null,"address":null,"osmType":"way","osmId":72268409}},{"type":"Feature","geometry":{"type":"Point","coordinates":[-1.66891,43.38761]},"properties":{"name":"Phare de Saint-Jean-de-Luz","country":"France","website":null,"opening_hours":null,"capacity":null,"phone":null,"address":null,"osmType":"way","osmId":72481847}},{"type":"Feature","geometry":{"type":"Point","coordinates":[-1.66644,43.3844]},"properties":{"name":"Phare de Ciboure","country":"France","website":null,"opening_hours":null,"capacity":null,"phone":null,"address":null,"osmType":"way","osmId":72598412}},{"type":"Feature","geometry":{"type":"Point","coordinates":[-1.67771,43.39741]},"properties":{"name":null,"country":"France","website":null,"opening_hours":null,"capacity":null,"phone":null,"address":null,"osmType":"way","osmId":72601276}},{"type":"Feature","geometry":{"type":"Point","coordinates":[-1.67516,43.38369]},"properties":{"name":"Tour Chappe","country":"France","website":null,"opening_hours":null,"capacity":null,"phone":null,"address":null,"osmType":"way","osmId":72602613}},{"type":"Feature","geometry":{"type":"Point","coordinates":[-1.04045,45.62184]},"properties":{"name":"Phare du Chay","country":"France","website":null,"opening_hours":null,"capacity":null,"phone":null,"address":null,"osmType":"way","osmId":72952650}},{"type":"Feature","geometry":{"type":"Point","coordinates":[-1.00802,45.59817]},"properties":{"name":"Phare du Port","country":"France","website":null,"opening_hours":null,"capacity":null,"phone":null,"address":null,"osmType":"way","osmId":73573846}},{"type":"Feature","geometry":{"type":"Point","coordinates":[-1.10638,45.64619]},"properties":{"name":"Phare de Terre-Nègre","country":"France","website":null,"opening_hours":null,"capacity":null,"phone":null,"address":null,"osmType":"way","osmId":74111387}},{"type":"Feature","geometry":{"type":"Point","coordinates":[-1.23324,45.69652]},"properties":{"name":"Phare de la Coubre","country":"France","website":null,"opening_hours":null,"capacity":null,"phone":null,"address":null,"osmType":"way","osmId":77448484}},{"type":"Feature","geometry":{"type":"Point","coordinates":[-1.41028,46.04669]},"properties":{"name":"Phare de Chassiron","country":"France","website":"https://chassiron.jimdo.com/","opening_hours":"Oct-Mar 10:00-12:30,14:00-17:00; Apr-Jun,Sep 10:00-19:00; Jul-Aug 10:00-20:00; Dec 25,Jan 01 off","capacity":null,"phone":"+33 5 46 75 18 62","address":"17650 Saint-Denis-d'Oléron","osmType":"way","osmId":77810428}},{"type":"Feature","geometry":{"type":"Point","coordinates":[-3.30883,48.83675]},"properties":{"name":"Feu du Voleur","country":"France","website":null,"opening_hours":null,"capacity":null,"phone":null,"address":null,"osmType":"way","osmId":77827625}},{"type":"Feature","geometry":{"type":"Point","coordinates":[-2.98589,48.86536]},"properties":{"name":"Phare du Paon","country":"France","website":null,"opening_hours":null,"capacity":null,"phone":null,"address":null,"osmType":"way","osmId":78374458}},{"type":"Feature","geometry":{"type":"Point","coordinates":[-3.48335,48.8375]},"properties":{"name":"Phare de Mean Ruz","country":"France","website":null,"opening_hours":null,"capacity":null,"phone":null,"address":null,"osmType":"way","osmId":81963847}},{"type":"Feature","geometry":{"type":"Point","coordinates":[-3.89493,47.84954]},"properties":{"name":"Baie de Pouldohan","country":"France","website":null,"opening_hours":null,"capacity":null,"phone":null,"address":null,"osmType":"way","osmId":82193246}},{"type":"Feature","geometry":{"type":"Point","coordinates":[-4.02783,47.77459]},"properties":{"name":"Phare des Moutons","country":"France","website":null,"opening_hours":null,"capacity":null,"phone":null,"address":null,"osmType":"way","osmId":83221817}},{"type":"Feature","geometry":{"type":"Point","coordinates":[-1.72897,47.20853]},"properties":{"name":null,"country":"France","website":null,"opening_hours":null,"capacity":null,"phone":null,"address":null,"osmType":"way","osmId":84920307}},{"type":"Feature","geometry":{"type":"Point","coordinates":[-1.96556,46.6924]},"properties":{"name":"Feu de Grosse Terre","country":"France","website":null,"opening_hours":null,"capacity":null,"phone":null,"address":null,"osmType":"way","osmId":86653382}},{"type":"Feature","geometry":{"type":"Point","coordinates":[-1.94591,46.69765]},"properties":{"name":null,"country":"France","website":null,"opening_hours":null,"capacity":null,"phone":null,"address":null,"osmType":"way","osmId":88925443}},{"type":"Feature","geometry":{"type":"Point","coordinates":[-1.94355,46.69937]},"properties":{"name":null,"country":"France","website":null,"opening_hours":null,"capacity":null,"phone":null,"address":null,"osmType":"way","osmId":88932031}},{"type":"Feature","geometry":{"type":"Point","coordinates":[-1.07276,45.96603]},"properties":{"name":"Petit Phare de Soumard","country":"France","website":null,"opening_hours":null,"capacity":null,"phone":null,"address":null,"osmType":"way","osmId":92530451}},{"type":"Feature","geometry":{"type":"Point","coordinates":[-4.11166,47.87181]},"properties":{"name":"Phare du Coq","country":"France","website":null,"opening_hours":null,"capacity":null,"phone":null,"address":null,"osmType":"way","osmId":92537090}},{"type":"Feature","geometry":{"type":"Point","coordinates":[-4.11284,47.87484]},"properties":{"name":"Phare de Bénodet","country":"France","website":null,"opening_hours":null,"capacity":null,"phone":null,"address":null,"osmType":"way","osmId":92538232}},{"type":"Feature","geometry":{"type":"Point","coordinates":[-4.5675,48.63885]},"properties":{"name":"Phare de l'Île Vierge","country":"France","website":null,"opening_hours":null,"capacity":null,"phone":null,"address":null,"osmType":"way","osmId":93055283}},{"type":"Feature","geometry":{"type":"Point","coordinates":[-4.57575,48.61478]},"properties":{"name":null,"country":"France","website":null,"opening_hours":null,"capacity":null,"phone":null,"address":null,"osmType":"way","osmId":93055636}},{"type":"Feature","geometry":{"type":"Point","coordinates":[-4.56775,48.63916]},"properties":{"name":"Vieux phare de l'Île Vierge","country":"France","website":null,"opening_hours":null,"capacity":null,"phone":null,"address":null,"osmType":"way","osmId":93055783}},{"type":"Feature","geometry":{"type":"Point","coordinates":[-4.15924,47.83136]},"properties":{"name":"Phare de Langoz","country":"France","website":null,"opening_hours":null,"capacity":null,"phone":null,"address":null,"osmType":"way","osmId":93512248}},{"type":"Feature","geometry":{"type":"Point","coordinates":[-4.27307,47.79643]},"properties":{"name":"Feu Postérieur \"Croas Malo\"","country":"France","website":null,"opening_hours":null,"capacity":null,"phone":null,"address":null,"osmType":"way","osmId":93634419}},{"type":"Feature","geometry":{"type":"Point","coordinates":[-3.00776,47.57298]},"properties":{"name":null,"country":"France","website":null,"opening_hours":null,"capacity":null,"phone":null,"address":null,"osmType":"way","osmId":94112033}},{"type":"Feature","geometry":{"type":"Point","coordinates":[-3.60753,47.7747]},"properties":{"name":"Montserrat","country":"France","website":null,"opening_hours":null,"capacity":null,"phone":null,"address":null,"osmType":"way","osmId":94535187}},{"type":"Feature","geometry":{"type":"Point","coordinates":[-3.60857,47.77188]},"properties":{"name":"Cayenne","country":"France","website":null,"opening_hours":null,"capacity":null,"phone":null,"address":null,"osmType":"way","osmId":94535561}},{"type":"Feature","geometry":{"type":"Point","coordinates":[-2.08285,48.67004]},"properties":{"name":"Phare du Grand-Jardin","country":"France","website":null,"opening_hours":null,"capacity":null,"phone":null,"address":null,"osmType":"way","osmId":94677643}},{"type":"Feature","geometry":{"type":"Point","coordinates":[-2.02171,48.63609]},"properties":{"name":"Phare des Sablons","country":"France","website":null,"opening_hours":null,"capacity":null,"phone":null,"address":null,"osmType":"way","osmId":94987727}},{"type":"Feature","geometry":{"type":"Point","coordinates":[-0.10176,49.29446]},"properties":{"name":null,"country":"France","website":null,"opening_hours":null,"capacity":null,"phone":null,"address":null,"osmType":"way","osmId":100161081}},{"type":"Feature","geometry":{"type":"Point","coordinates":[-1.17333,45.58632]},"properties":{"name":"Phare de Cordouan","country":"France","website":"https://www.phare-de-cordouan.fr/","opening_hours":null,"capacity":null,"phone":null,"address":null,"osmType":"way","osmId":100219438}},{"type":"Feature","geometry":{"type":"Point","coordinates":[-2.19696,47.27127]},"properties":{"name":"Vieux Môle","country":"France","website":null,"opening_hours":null,"capacity":null,"phone":null,"address":null,"osmType":"way","osmId":101589345}},{"type":"Feature","geometry":{"type":"Point","coordinates":[-1.95434,49.72189]},"properties":{"name":"Phare de la Hague","country":"France","website":null,"opening_hours":null,"capacity":null,"phone":null,"address":null,"osmType":"way","osmId":103314586}},{"type":"Feature","geometry":{"type":"Point","coordinates":[-0.24789,49.2799]},"properties":{"name":"Phare de Ouistreham","country":"France","website":null,"opening_hours":null,"capacity":null,"phone":null,"address":null,"osmType":"way","osmId":107457075}},{"type":"Feature","geometry":{"type":"Point","coordinates":[-1.46363,46.34454]},"properties":{"name":"Phare du Grouin du Cou","country":"France","website":null,"opening_hours":null,"capacity":null,"phone":null,"address":null,"osmType":"way","osmId":109640054}},{"type":"Feature","geometry":{"type":"Point","coordinates":[-1.32864,45.91179]},"properties":{"name":null,"country":"France","website":null,"opening_hours":null,"capacity":null,"phone":null,"address":null,"osmType":"way","osmId":111368180}},{"type":"Feature","geometry":{"type":"Point","coordinates":[-1.32839,45.91342]},"properties":{"name":null,"country":"France","website":null,"opening_hours":null,"capacity":null,"phone":null,"address":null,"osmType":"way","osmId":111372077}},{"type":"Feature","geometry":{"type":"Point","coordinates":[-3.91813,47.86928]},"properties":{"name":"Phare de La Croix","country":"France","website":null,"opening_hours":null,"capacity":null,"phone":null,"address":null,"osmType":"way","osmId":118445466}},{"type":"Feature","geometry":{"type":"Point","coordinates":[-3.39547,48.80112]},"properties":{"name":"Phare de Nantouar","country":"France","website":null,"opening_hours":null,"capacity":null,"phone":null,"address":null,"osmType":"way","osmId":118638646}},{"type":"Feature","geometry":{"type":"Point","coordinates":[-3.38993,48.79646]},"properties":{"name":"Kerjean","country":"France","website":null,"opening_hours":null,"capacity":null,"phone":null,"address":null,"osmType":"way","osmId":118639989}},{"type":"Feature","geometry":{"type":"Point","coordinates":[-1.15234,46.1559]},"properties":{"name":null,"country":"France","website":null,"opening_hours":null,"capacity":null,"phone":null,"address":null,"osmType":"way","osmId":119815350}},{"type":"Feature","geometry":{"type":"Point","coordinates":[-1.19306,45.8856]},"properties":{"name":null,"country":"France","website":null,"opening_hours":null,"capacity":null,"phone":null,"address":null,"osmType":"way","osmId":121098982}},{"type":"Feature","geometry":{"type":"Point","coordinates":[-1.23038,45.97072]},"properties":{"name":null,"country":"France","website":null,"opening_hours":null,"capacity":null,"phone":null,"address":null,"osmType":"way","osmId":122453585}},{"type":"Feature","geometry":{"type":"Point","coordinates":[-4.33745,48.10232]},"properties":{"name":"Phare de l'Île Tristan","country":"France","website":null,"opening_hours":null,"capacity":null,"phone":null,"address":null,"osmType":"way","osmId":122875727}},{"type":"Feature","geometry":{"type":"Point","coordinates":[-3.21388,47.64494]},"properties":{"name":null,"country":"France","website":null,"opening_hours":null,"capacity":null,"phone":null,"address":null,"osmType":"way","osmId":123135478}},{"type":"Feature","geometry":{"type":"Point","coordinates":[-1.17787,46.00989]},"properties":{"name":"Phare de l'Île d'Aix","country":"France","website":null,"opening_hours":null,"capacity":null,"phone":null,"address":null,"osmType":"way","osmId":125267349}},{"type":"Feature","geometry":{"type":"Point","coordinates":[-1.17805,46.00995]},"properties":{"name":null,"country":"France","website":null,"opening_hours":null,"capacity":null,"phone":null,"address":null,"osmType":"way","osmId":125267350}},{"type":"Feature","geometry":{"type":"Point","coordinates":[-1.44746,43.65539]},"properties":{"name":null,"country":"France","website":null,"opening_hours":null,"capacity":null,"phone":null,"address":null,"osmType":"way","osmId":129040815}},{"type":"Feature","geometry":{"type":"Point","coordinates":[-1.57713,49.00314]},"properties":{"name":"Feu de la Pointe d'Agon","country":"France","website":null,"opening_hours":null,"capacity":null,"phone":null,"address":null,"osmType":"way","osmId":129279268}},{"type":"Feature","geometry":{"type":"Point","coordinates":[-1.17927,46.13778]},"properties":{"name":"Phare du Bout du Monde de La Rochelle","country":"France","website":null,"opening_hours":null,"capacity":null,"phone":null,"address":null,"osmType":"way","osmId":130309832}},{"type":"Feature","geometry":{"type":"Point","coordinates":[-1.82237,48.86953]},"properties":{"name":"Phare de Chausey","country":"France","website":null,"opening_hours":null,"capacity":null,"phone":null,"address":null,"osmType":"way","osmId":135525569}},{"type":"Feature","geometry":{"type":"Point","coordinates":[-2.31876,48.6841]},"properties":{"name":"Phare du Cap Fréhel","country":"France","website":null,"opening_hours":null,"capacity":null,"phone":null,"address":null,"osmType":"way","osmId":135722236}},{"type":"Feature","geometry":{"type":"Point","coordinates":[-3.42576,47.705]},"properties":{"name":null,"country":"France","website":null,"opening_hours":null,"capacity":null,"phone":null,"address":null,"osmType":"way","osmId":135731345}},{"type":"Feature","geometry":{"type":"Point","coordinates":[-2.71863,48.53544]},"properties":{"name":"Phare de la Pointe-à-l'Aigle","country":"France","website":null,"opening_hours":null,"capacity":null,"phone":null,"address":null,"osmType":"way","osmId":144734838}},{"type":"Feature","geometry":{"type":"Point","coordinates":[-2.28477,46.69019]},"properties":{"name":"Phare des Corbeaux","country":"France","website":null,"opening_hours":null,"capacity":null,"phone":null,"address":null,"osmType":"way","osmId":152021456}},{"type":"Feature","geometry":{"type":"Point","coordinates":[-1.47319,49.69586]},"properties":{"name":"Phare du Cap Lévi","country":"France","website":null,"opening_hours":null,"capacity":null,"phone":null,"address":null,"osmType":"way","osmId":153785783}},{"type":"Feature","geometry":{"type":"Point","coordinates":[-1.25772,49.672]},"properties":{"name":null,"country":"France","website":null,"opening_hours":null,"capacity":null,"phone":null,"address":null,"osmType":"way","osmId":153805863}},{"type":"Feature","geometry":{"type":"Point","coordinates":[-1.2594,49.6721]},"properties":{"name":null,"country":"France","website":null,"opening_hours":null,"capacity":null,"phone":null,"address":null,"osmType":"way","osmId":153806513}},{"type":"Feature","geometry":{"type":"Point","coordinates":[-1.26256,49.6678]},"properties":{"name":null,"country":"France","website":null,"opening_hours":null,"capacity":null,"phone":null,"address":null,"osmType":"way","osmId":153806740}},{"type":"Feature","geometry":{"type":"Point","coordinates":[-1.26004,49.66978]},"properties":{"name":null,"country":"France","website":null,"opening_hours":null,"capacity":null,"phone":null,"address":null,"osmType":"way","osmId":153807541}},{"type":"Feature","geometry":{"type":"Point","coordinates":[-0.716,45.20461]},"properties":{"name":"Phare de Patiras","country":"France","website":null,"opening_hours":null,"capacity":null,"phone":null,"address":null,"osmType":"way","osmId":162906928}},{"type":"Feature","geometry":{"type":"Point","coordinates":[-2.91829,47.54793]},"properties":{"name":"Phare de Port-Navalo","country":"France","website":null,"opening_hours":null,"capacity":null,"phone":null,"address":"9 Rue du Phare","osmType":"way","osmId":171076270}},{"type":"Feature","geometry":{"type":"Point","coordinates":[-2.89527,47.54377]},"properties":{"name":null,"country":"France","website":null,"opening_hours":null,"capacity":null,"phone":null,"address":null,"osmType":"way","osmId":171109590}},{"type":"Feature","geometry":{"type":"Point","coordinates":[-1.79199,46.48723]},"properties":{"name":"Phare de la Jetée Saint-Nicolas","country":"France","website":null,"opening_hours":null,"capacity":null,"phone":null,"address":null,"osmType":"way","osmId":171146739}},{"type":"Feature","geometry":{"type":"Point","coordinates":[-2.58598,47.52055]},"properties":{"name":null,"country":"France","website":null,"opening_hours":null,"capacity":null,"phone":null,"address":null,"osmType":"way","osmId":176422140}},{"type":"Feature","geometry":{"type":"Point","coordinates":[-2.50189,47.5163]},"properties":{"name":"Phare de Penlan","country":"France","website":null,"opening_hours":null,"capacity":null,"phone":null,"address":null,"osmType":"way","osmId":176428221}},{"type":"Feature","geometry":{"type":"Point","coordinates":[-4.50085,48.30986]},"properties":{"name":null,"country":"France","website":null,"opening_hours":null,"capacity":null,"phone":null,"address":null,"osmType":"way","osmId":177684209}},{"type":"Feature","geometry":{"type":"Point","coordinates":[-1.80477,46.48983]},"properties":{"name":"Phare de l'Armandèche","country":"France","website":null,"opening_hours":null,"capacity":null,"phone":null,"address":null,"osmType":"way","osmId":179499177}},{"type":"Feature","geometry":{"type":"Point","coordinates":[-1.06621,45.96391]},"properties":{"name":"Grand Phare de Soumard","country":"France","website":null,"opening_hours":null,"capacity":null,"phone":null,"address":null,"osmType":"way","osmId":189956297}},{"type":"Feature","geometry":{"type":"Point","coordinates":[-1.08355,45.56213]},"properties":{"name":"Phare Saint-Nicolas","country":"France","website":null,"opening_hours":null,"capacity":null,"phone":null,"address":null,"osmType":"way","osmId":192421345}},{"type":"Feature","geometry":{"type":"Point","coordinates":[-2.5237,47.3082]},"properties":{"name":"Phare du Tréhic","country":"France","website":null,"opening_hours":null,"capacity":null,"phone":null,"address":null,"osmType":"way","osmId":198321424}},{"type":"Feature","geometry":{"type":"Point","coordinates":[-2.63426,47.2978]},"properties":{"name":"Phare du Four","country":"France","website":null,"opening_hours":null,"capacity":null,"phone":null,"address":null,"osmType":"way","osmId":198325496}},{"type":"Feature","geometry":{"type":"Point","coordinates":[-1.31683,44.0935]},"properties":{"name":"Phare de Contis","country":"France","website":null,"opening_hours":null,"capacity":null,"phone":null,"address":null,"osmType":"way","osmId":201248452}},{"type":"Feature","geometry":{"type":"Point","coordinates":[-1.792,43.39197]},"properties":{"name":"Higer itsasargia","country":"France","website":null,"opening_hours":null,"capacity":null,"phone":null,"address":null,"osmType":"way","osmId":202074136}},{"type":"Feature","geometry":{"type":"Point","coordinates":[-0.5189,49.34013]},"properties":{"name":"Phare de Ver-sur-Mer","country":"France","website":null,"opening_hours":null,"capacity":null,"phone":null,"address":null,"osmType":"way","osmId":218717515}},{"type":"Feature","geometry":{"type":"Point","coordinates":[-4.53556,48.61003]},"properties":{"name":"Phare de Lanvaon","country":"France","website":null,"opening_hours":null,"capacity":null,"phone":null,"address":null,"osmType":"way","osmId":232642575}},{"type":"Feature","geometry":{"type":"Point","coordinates":[-4.56043,48.59675]},"properties":{"name":"La Palue","country":"France","website":null,"opening_hours":null,"capacity":null,"phone":null,"address":null,"osmType":"way","osmId":232645533}},{"type":"Feature","geometry":{"type":"Point","coordinates":[-4.78988,48.362]},"properties":{"name":"Phare de Kermorvan","country":"France","website":null,"opening_hours":null,"capacity":null,"phone":null,"address":null,"osmType":"way","osmId":232707096}},{"type":"Feature","geometry":{"type":"Point","coordinates":[-1.22978,49.60627]},"properties":{"name":"Phare de la Point de Saire","country":"France","website":null,"opening_hours":null,"capacity":null,"phone":null,"address":null,"osmType":"way","osmId":239818625}},{"type":"Feature","geometry":{"type":"Point","coordinates":[-3.87548,48.67249]},"properties":{"name":"Phare de l'Île Noire","country":"France","website":null,"opening_hours":null,"capacity":null,"phone":null,"address":null,"osmType":"way","osmId":252491992}},{"type":"Feature","geometry":{"type":"Point","coordinates":[-1.26588,49.69642]},"properties":{"name":null,"country":"France","website":null,"opening_hours":null,"capacity":null,"phone":null,"address":null,"osmType":"way","osmId":262396040}},{"type":"Feature","geometry":{"type":"Point","coordinates":[-1.26556,49.69694]},"properties":{"name":"Sémaphore de Barfleur","country":"France","website":null,"opening_hours":null,"capacity":null,"phone":null,"address":null,"osmType":"way","osmId":262396041}},{"type":"Feature","geometry":{"type":"Point","coordinates":[-1.64781,49.67428]},"properties":{"name":null,"country":"France","website":null,"opening_hours":null,"capacity":null,"phone":null,"address":null,"osmType":"way","osmId":264908255}},{"type":"Feature","geometry":{"type":"Point","coordinates":[-3.6466,48.87146]},"properties":{"name":"Phare des Triagoz","country":"France","website":null,"opening_hours":null,"capacity":null,"phone":null,"address":null,"osmType":"way","osmId":265752037}},{"type":"Feature","geometry":{"type":"Point","coordinates":[-3.08628,48.90845]},"properties":{"name":null,"country":"France","website":null,"opening_hours":null,"capacity":null,"phone":null,"address":null,"osmType":"way","osmId":265950087}},{"type":"Feature","geometry":{"type":"Point","coordinates":[-2.94032,48.77952]},"properties":{"name":null,"country":"France","website":null,"opening_hours":null,"capacity":null,"phone":null,"address":null,"osmType":"way","osmId":266869342}},{"type":"Feature","geometry":{"type":"Point","coordinates":[-2.82242,48.64511]},"properties":{"name":"Phare du Portrieux","country":"France","website":null,"opening_hours":null,"capacity":null,"phone":null,"address":null,"osmType":"way","osmId":270299349}},{"type":"Feature","geometry":{"type":"Point","coordinates":[-3.08628,48.90845]},"properties":{"name":"Phare des Heaux de Bréhat","country":"France","website":null,"opening_hours":null,"capacity":null,"phone":null,"address":null,"osmType":"way","osmId":270576655}},{"type":"Feature","geometry":{"type":"Point","coordinates":[-5.12901,48.4592]},"properties":{"name":"Phare du Créac'h","country":"France","website":null,"opening_hours":null,"capacity":null,"phone":null,"address":null,"osmType":"way","osmId":282723238}},{"type":"Feature","geometry":{"type":"Point","coordinates":[-1.03013,45.61665]},"properties":{"name":"Phare de l'Embarcadère","country":"France","website":null,"opening_hours":null,"capacity":null,"phone":null,"address":null,"osmType":"way","osmId":289888794}},{"type":"Feature","geometry":{"type":"Point","coordinates":[-4.86688,48.04358]},"properties":{"name":"Phare de l'île de Sein","country":"France","website":null,"opening_hours":null,"capacity":null,"phone":null,"address":null,"osmType":"way","osmId":364993683}},{"type":"Feature","geometry":{"type":"Point","coordinates":[-3.1015,47.48617]},"properties":{"name":"Ancien phare","country":"France","website":null,"opening_hours":null,"capacity":null,"phone":null,"address":null,"osmType":"way","osmId":365915823}},{"type":"Feature","geometry":{"type":"Point","coordinates":[-2.81412,49.10502]},"properties":{"name":"Phare des Roches Douvres","country":"France","website":null,"opening_hours":null,"capacity":null,"phone":null,"address":null,"osmType":"way","osmId":368957560}},{"type":"Feature","geometry":{"type":"Point","coordinates":[-1.77402,46.49084]},"properties":{"name":"Le Feu du Remblai","country":"France","website":null,"opening_hours":null,"capacity":null,"phone":null,"address":null,"osmType":"way","osmId":391733575}},{"type":"Feature","geometry":{"type":"Point","coordinates":[-2.44173,47.49286]},"properties":{"name":"Phare de Tréhiguier","country":"France","website":null,"opening_hours":null,"capacity":null,"phone":null,"address":null,"osmType":"way","osmId":429896031}},{"type":"Feature","geometry":{"type":"Point","coordinates":[-1.27358,46.13383]},"properties":{"name":"Phare de Chauveau","country":"France","website":null,"opening_hours":null,"capacity":null,"phone":null,"address":null,"osmType":"way","osmId":496684184}},{"type":"Feature","geometry":{"type":"Point","coordinates":[-2.2501,49.17984]},"properties":{"name":"Corbière Lighthouse","country":"France","website":null,"opening_hours":null,"capacity":null,"phone":null,"address":null,"osmType":"way","osmId":499612356}},{"type":"Feature","geometry":{"type":"Point","coordinates":[-1.39517,46.06562]},"properties":{"name":"Tour d'Antioche","country":"France","website":null,"opening_hours":null,"capacity":null,"phone":null,"address":null,"osmType":"way","osmId":506998744}},{"type":"Feature","geometry":{"type":"Point","coordinates":[-1.16096,45.14208]},"properties":{"name":"Phare d'Hourtin","country":"France","website":null,"opening_hours":null,"capacity":null,"phone":null,"address":null,"osmType":"way","osmId":513934973}},{"type":"Feature","geometry":{"type":"Point","coordinates":[-4.9521,48.04303]},"properties":{"name":"Tourelle d'An Namouic","country":"France","website":null,"opening_hours":null,"capacity":null,"phone":null,"address":null,"osmType":"way","osmId":608446900}},{"type":"Feature","geometry":{"type":"Point","coordinates":[-1.56112,46.24419]},"properties":{"name":"Phare des Baleines","country":"France","website":null,"opening_hours":"Apr-Jun,Sep 10:00-19:00; Jul-Aug 09:30-20:00; Oct-Mar 10:30-17:30","capacity":null,"phone":null,"address":null,"osmType":"way","osmId":611318589}},{"type":"Feature","geometry":{"type":"Point","coordinates":[-1.79176,46.49065]},"properties":{"name":"Phare de la jetée des Sables","country":"France","website":null,"opening_hours":null,"capacity":null,"phone":null,"address":null,"osmType":"way","osmId":613499583}},{"type":"Feature","geometry":{"type":"Point","coordinates":[-2.16102,46.89054]},"properties":{"name":null,"country":"France","website":null,"opening_hours":null,"capacity":null,"phone":null,"address":null,"osmType":"way","osmId":614657588}},{"type":"Feature","geometry":{"type":"Point","coordinates":[-5.02569,48.43738]},"properties":{"name":"Phare de Kéréon","country":"France","website":null,"opening_hours":null,"capacity":null,"phone":null,"address":null,"osmType":"way","osmId":627188299}},{"type":"Feature","geometry":{"type":"Point","coordinates":[-4.99773,48.05012]},"properties":{"name":"Phare d'Ar-Men","country":"France","website":null,"opening_hours":null,"capacity":null,"phone":null,"address":null,"osmType":"way","osmId":628663159}},{"type":"Feature","geometry":{"type":"Point","coordinates":[-1.61302,48.83451]},"properties":{"name":"Phare du Cap Lihou","country":"France","website":null,"opening_hours":null,"capacity":null,"phone":null,"address":null,"osmType":"way","osmId":715836842}},{"type":"Feature","geometry":{"type":"Point","coordinates":[-1.24882,44.64596]},"properties":{"name":"Phare du Cap-Ferret","country":"France","website":null,"opening_hours":null,"capacity":null,"phone":null,"address":null,"osmType":"way","osmId":715849418}},{"type":"Feature","geometry":{"type":"Point","coordinates":[-2.31762,48.68785]},"properties":{"name":"Phare du cap Fréhel","country":"France","website":null,"opening_hours":null,"capacity":null,"phone":null,"address":"22240 Plévenon","osmType":"way","osmId":717175344}},{"type":"Feature","geometry":{"type":"Point","coordinates":[-5.05279,48.47593]},"properties":{"name":"Tour du Stiff","country":"France","website":null,"opening_hours":null,"capacity":null,"phone":null,"address":null,"osmType":"way","osmId":727440308}},{"type":"Feature","geometry":{"type":"Point","coordinates":[-1.53314,43.53147]},"properties":{"name":null,"country":"France","website":null,"opening_hours":null,"capacity":null,"phone":null,"address":null,"osmType":"way","osmId":727732051}},{"type":"Feature","geometry":{"type":"Point","coordinates":[-1.52445,43.52894]},"properties":{"name":null,"country":"France","website":null,"opening_hours":null,"capacity":null,"phone":null,"address":null,"osmType":"way","osmId":727732052}},{"type":"Feature","geometry":{"type":"Point","coordinates":[-1.52351,43.53036]},"properties":{"name":null,"country":"France","website":null,"opening_hours":null,"capacity":null,"phone":null,"address":null,"osmType":"way","osmId":727732053}},{"type":"Feature","geometry":{"type":"Point","coordinates":[-1.52069,43.52947]},"properties":{"name":null,"country":"France","website":null,"opening_hours":null,"capacity":null,"phone":null,"address":null,"osmType":"way","osmId":727732054}},{"type":"Feature","geometry":{"type":"Point","coordinates":[-1.51486,43.52732]},"properties":{"name":null,"country":"France","website":null,"opening_hours":null,"capacity":null,"phone":null,"address":null,"osmType":"way","osmId":727732055}},{"type":"Feature","geometry":{"type":"Point","coordinates":[-4.75644,48.04067]},"properties":{"name":"Phare de la Vieille","country":"France","website":null,"opening_hours":null,"capacity":null,"phone":null,"address":null,"osmType":"way","osmId":737263555}},{"type":"Feature","geometry":{"type":"Point","coordinates":[-4.07307,48.68532]},"properties":{"name":null,"country":"France","website":null,"opening_hours":null,"capacity":null,"phone":null,"address":null,"osmType":"way","osmId":753694859}},{"type":"Feature","geometry":{"type":"Point","coordinates":[-4.94726,48.41164]},"properties":{"name":"Les Trois Pierres","country":"France","website":null,"opening_hours":null,"capacity":null,"phone":null,"address":null,"osmType":"way","osmId":756388560}},{"type":"Feature","geometry":{"type":"Point","coordinates":[-1.77044,46.49292]},"properties":{"name":"Phare de la Potence","country":"France","website":null,"opening_hours":null,"capacity":null,"phone":null,"address":null,"osmType":"way","osmId":756584640}},{"type":"Feature","geometry":{"type":"Point","coordinates":[-3.00615,47.56823]},"properties":{"name":null,"country":"France","website":null,"opening_hours":null,"capacity":null,"phone":null,"address":null,"osmType":"way","osmId":757973183}},{"type":"Feature","geometry":{"type":"Point","coordinates":[-3.05957,47.31012]},"properties":{"name":"Phare de Kerdonis","country":"France","website":null,"opening_hours":null,"capacity":null,"phone":null,"address":null,"osmType":"way","osmId":758890420}},{"type":"Feature","geometry":{"type":"Point","coordinates":[-3.25177,47.38859]},"properties":{"name":"Phare des Poulains","country":"France","website":null,"opening_hours":null,"capacity":null,"phone":null,"address":null,"osmType":"way","osmId":758913687}},{"type":"Feature","geometry":{"type":"Point","coordinates":[-1.06577,45.56854]},"properties":{"name":"Phare de la Pointe de Grave","country":"France","website":null,"opening_hours":null,"capacity":null,"phone":null,"address":null,"osmType":"way","osmId":759021127}},{"type":"Feature","geometry":{"type":"Point","coordinates":[-1.24877,44.64585]},"properties":{"name":"Phare du Cap Ferret","country":"France","website":null,"opening_hours":null,"capacity":null,"phone":null,"address":null,"osmType":"way","osmId":759354447}},{"type":"Feature","geometry":{"type":"Point","coordinates":[-1.31772,49.56955]},"properties":{"name":null,"country":"France","website":null,"opening_hours":null,"capacity":null,"phone":null,"address":null,"osmType":"way","osmId":777456604}},{"type":"Feature","geometry":{"type":"Point","coordinates":[-1.56198,46.24463]},"properties":{"name":"Vieux Phare des Baleines","country":"France","website":null,"opening_hours":null,"capacity":null,"phone":null,"address":null,"osmType":"way","osmId":832883278}},{"type":"Feature","geometry":{"type":"Point","coordinates":[-2.66459,48.74848]},"properties":{"name":"Phare du Grand Léjon","country":"France","website":null,"opening_hours":null,"capacity":null,"phone":null,"address":null,"osmType":"way","osmId":865469982}},{"type":"Feature","geometry":{"type":"Point","coordinates":[-1.66224,49.09145]},"properties":{"name":"Phare du Sénéquet","country":"France","website":null,"opening_hours":null,"capacity":null,"phone":null,"address":null,"osmType":"way","osmId":940874033}},{"type":"Feature","geometry":{"type":"Point","coordinates":[-4.1661,47.83753]},"properties":{"name":"Perdrix","country":"France","website":null,"opening_hours":null,"capacity":null,"phone":null,"address":null,"osmType":"way","osmId":979666784}},{"type":"Feature","geometry":{"type":"Point","coordinates":[-3.42155,47.62074]},"properties":{"name":"Phare des Chats","country":"France","website":null,"opening_hours":null,"capacity":null,"phone":null,"address":null,"osmType":"way","osmId":1021607669}},{"type":"Feature","geometry":{"type":"Point","coordinates":[-1.17242,46.14826]},"properties":{"name":"Tourelle Richelieu","country":"France","website":null,"opening_hours":null,"capacity":null,"phone":null,"address":null,"osmType":"way","osmId":1028633485}},{"type":"Feature","geometry":{"type":"Point","coordinates":[-3.46098,47.69953]},"properties":{"name":null,"country":"France","website":null,"opening_hours":null,"capacity":null,"phone":null,"address":null,"osmType":"way","osmId":1043754888}},{"type":"Feature","geometry":{"type":"Point","coordinates":[-1.8515,48.67053]},"properties":{"name":"Phare de La Fenêtre","country":"France","website":null,"opening_hours":null,"capacity":null,"phone":null,"address":null,"osmType":"way","osmId":1081806352}},{"type":"Feature","geometry":{"type":"Point","coordinates":[-2.52828,49.42174]},"properties":{"name":"St Martins Point Lighthouse","country":"France","website":null,"opening_hours":null,"capacity":null,"phone":null,"address":null,"osmType":"way","osmId":1237321588}},{"type":"Feature","geometry":{"type":"Point","coordinates":[-1.84166,46.49505]},"properties":{"name":"Phare des Barges","country":"France","website":null,"opening_hours":null,"capacity":null,"phone":null,"address":null,"osmType":"way","osmId":1312119141}},{"type":"Feature","geometry":{"type":"Point","coordinates":[8.93208,42.64456]},"properties":{"name":"Phare de la Pietra","country":"France","website":null,"opening_hours":null,"capacity":null,"phone":null,"address":null,"ele":null,"osmType":"node","osmId":271322766}},{"type":"Feature","geometry":{"type":"Point","coordinates":[5.92919,43.11721]},"properties":{"name":null,"country":"France","website":null,"opening_hours":null,"capacity":null,"phone":null,"address":null,"ele":null,"osmType":"node","osmId":294714575}},{"type":"Feature","geometry":{"type":"Point","coordinates":[4.14176,43.48768]},"properties":{"name":"Phare de l'Espiguette","country":"France","website":"https://www.phare-espiguette.fr/","opening_hours":null,"capacity":null,"phone":null,"address":null,"ele":null,"osmType":"node","osmId":296911109}},{"type":"Feature","geometry":{"type":"Point","coordinates":[6.36286,43.08853]},"properties":{"name":"Phare du Cap Blanc","country":"France","website":null,"opening_hours":null,"capacity":null,"phone":null,"address":null,"ele":null,"osmType":"node","osmId":299357507}},{"type":"Feature","geometry":{"type":"Point","coordinates":[4.13225,43.53468]},"properties":{"name":null,"country":"France","website":null,"opening_hours":null,"capacity":null,"phone":null,"address":null,"ele":null,"osmType":"node","osmId":417972894}},{"type":"Feature","geometry":{"type":"Point","coordinates":[4.13181,43.53519]},"properties":{"name":null,"country":"France","website":null,"opening_hours":null,"capacity":null,"phone":null,"address":null,"ele":null,"osmType":"node","osmId":417972902}},{"type":"Feature","geometry":{"type":"Point","coordinates":[3.44388,43.27976]},"properties":{"name":null,"country":"France","website":null,"opening_hours":null,"capacity":null,"phone":null,"address":null,"ele":null,"osmType":"node","osmId":425697978}},{"type":"Feature","geometry":{"type":"Point","coordinates":[6.15599,46.20801]},"properties":{"name":"Phare des Eaux-Vives","country":"France","website":null,"opening_hours":null,"capacity":null,"phone":null,"address":null,"ele":null,"osmType":"node","osmId":426237190}},{"type":"Feature","geometry":{"type":"Point","coordinates":[6.15693,46.21]},"properties":{"name":"Phare des Pâquis","country":"France","website":null,"opening_hours":null,"capacity":null,"phone":null,"address":null,"ele":null,"osmType":"node","osmId":426618808}},{"type":"Feature","geometry":{"type":"Point","coordinates":[3.44276,43.28043]},"properties":{"name":null,"country":"France","website":null,"opening_hours":null,"capacity":null,"phone":null,"address":null,"ele":null,"osmType":"node","osmId":431419325}},{"type":"Feature","geometry":{"type":"Point","coordinates":[0.95846,49.91606]},"properties":{"name":"Phare d'Ailly","country":"France","website":null,"opening_hours":null,"capacity":null,"phone":null,"address":null,"ele":null,"osmType":"node","osmId":461813484}},{"type":"Feature","geometry":{"type":"Point","coordinates":[0.36329,49.76563]},"properties":{"name":"Phare de Fécamp","country":"France","website":null,"opening_hours":null,"capacity":null,"phone":null,"address":null,"ele":null,"osmType":"node","osmId":493872225}},{"type":"Feature","geometry":{"type":"Point","coordinates":[0.36364,49.7648]},"properties":{"name":"Feu de la jetée Sud","country":"France","website":null,"opening_hours":null,"capacity":null,"phone":null,"address":null,"ele":null,"osmType":"node","osmId":493872264}},{"type":"Feature","geometry":{"type":"Point","coordinates":[5.76756,43.08026]},"properties":{"name":"Phare du Grand Rouveau","country":"France","website":null,"opening_hours":null,"capacity":null,"phone":null,"address":null,"ele":null,"osmType":"node","osmId":496228035}},{"type":"Feature","geometry":{"type":"Point","coordinates":[10.06424,42.35895]},"properties":{"name":null,"country":"France","website":null,"opening_hours":null,"capacity":null,"phone":null,"address":null,"ele":null,"osmType":"node","osmId":515929087}},{"type":"Feature","geometry":{"type":"Point","coordinates":[1.45375,50.10498]},"properties":{"name":null,"country":"France","website":null,"opening_hours":null,"capacity":null,"phone":null,"address":null,"ele":null,"osmType":"node","osmId":620897376}},{"type":"Feature","geometry":{"type":"Point","coordinates":[1.51214,50.19425]},"properties":{"name":null,"country":"France","website":null,"opening_hours":null,"capacity":null,"phone":null,"address":null,"ele":null,"osmType":"node","osmId":623430641}},{"type":"Feature","geometry":{"type":"Point","coordinates":[1.64363,50.18616]},"properties":{"name":"Phare rouge de la Digue du Nord","country":"France","website":null,"opening_hours":null,"capacity":null,"phone":null,"address":null,"ele":null,"osmType":"node","osmId":624223698}},{"type":"Feature","geometry":{"type":"Point","coordinates":[1.623,50.21471]},"properties":{"name":"Feu de Marée","country":"France","website":null,"opening_hours":null,"capacity":null,"phone":null,"address":null,"ele":null,"osmType":"node","osmId":631722015}},{"type":"Feature","geometry":{"type":"Point","coordinates":[3.50171,43.26295]},"properties":{"name":"Phare du Fort de Brescou","country":"France","website":null,"opening_hours":null,"capacity":null,"phone":null,"address":null,"ele":null,"osmType":"node","osmId":648692336}},{"type":"Feature","geometry":{"type":"Point","coordinates":[3.05598,42.91054]},"properties":{"name":"Phare de Leucate","country":"France","website":null,"opening_hours":null,"capacity":null,"phone":null,"address":null,"ele":null,"osmType":"node","osmId":669990455}},{"type":"Feature","geometry":{"type":"Point","coordinates":[6.14405,43.01651]},"properties":{"name":null,"country":"France","website":null,"opening_hours":null,"capacity":null,"phone":null,"address":null,"ele":null,"osmType":"node","osmId":696670030}},{"type":"Feature","geometry":{"type":"Point","coordinates":[7.13959,43.63243]},"properties":{"name":null,"country":"France","website":null,"opening_hours":null,"capacity":null,"phone":null,"address":null,"ele":null,"osmType":"node","osmId":738680197}},{"type":"Feature","geometry":{"type":"Point","coordinates":[3.60582,43.42151]},"properties":{"name":null,"country":"France","website":null,"opening_hours":null,"capacity":null,"phone":null,"address":null,"ele":null,"osmType":"node","osmId":849572186}},{"type":"Feature","geometry":{"type":"Point","coordinates":[6.51024,43.04655]},"properties":{"name":"Phare du Titan","country":"France","website":null,"opening_hours":null,"capacity":null,"phone":null,"address":null,"ele":null,"osmType":"node","osmId":938142592}},{"type":"Feature","geometry":{"type":"Point","coordinates":[3.08873,42.52763]},"properties":{"name":null,"country":"France","website":null,"opening_hours":null,"capacity":null,"phone":null,"address":null,"ele":null,"osmType":"node","osmId":1025762906}},{"type":"Feature","geometry":{"type":"Point","coordinates":[4.87151,43.39016]},"properties":{"name":null,"country":"France","website":null,"opening_hours":null,"capacity":null,"phone":null,"address":null,"ele":null,"osmType":"node","osmId":1070463688}},{"type":"Feature","geometry":{"type":"Point","coordinates":[7.1382,43.63167]},"properties":{"name":null,"country":"France","website":null,"opening_hours":null,"capacity":null,"phone":null,"address":null,"ele":null,"osmType":"node","osmId":1211221438}},{"type":"Feature","geometry":{"type":"Point","coordinates":[8.79419,41.55851]},"properties":{"name":"Phare de Senetosa","country":"France","website":null,"opening_hours":null,"capacity":null,"phone":null,"address":null,"ele":null,"osmType":"node","osmId":1278630020}},{"type":"Feature","geometry":{"type":"Point","coordinates":[3.70048,43.42407]},"properties":{"name":null,"country":"France","website":null,"opening_hours":null,"capacity":null,"phone":null,"address":null,"ele":null,"osmType":"node","osmId":1305809296}},{"type":"Feature","geometry":{"type":"Point","coordinates":[9.33984,41.30711]},"properties":{"name":"Faro Razzoli","country":"France","website":null,"opening_hours":null,"capacity":null,"phone":null,"address":null,"ele":null,"osmType":"node","osmId":1327347619}},{"type":"Feature","geometry":{"type":"Point","coordinates":[9.40079,41.30161]},"properties":{"name":"Faro di Barrettinelli","country":"France","website":null,"opening_hours":null,"capacity":null,"phone":null,"address":null,"ele":null,"osmType":"node","osmId":1327347620}},{"type":"Feature","geometry":{"type":"Point","coordinates":[9.38398,41.29863]},"properties":{"name":"Faro di Punta Filetto","country":"France","website":null,"opening_hours":null,"capacity":null,"phone":null,"address":null,"ele":null,"osmType":"node","osmId":1327347621}},{"type":"Feature","geometry":{"type":"Point","coordinates":[9.3552,41.61763]},"properties":{"name":"Phare de Saint Cyprien","country":"France","website":null,"opening_hours":null,"capacity":null,"phone":null,"address":null,"ele":null,"osmType":"node","osmId":1327347665}},{"type":"Feature","geometry":{"type":"Point","coordinates":[9.29781,42.67995]},"properties":{"name":null,"country":"France","website":null,"opening_hours":null,"capacity":null,"phone":null,"address":null,"ele":null,"osmType":"node","osmId":1327347738}},{"type":"Feature","geometry":{"type":"Point","coordinates":[9.29413,42.68242]},"properties":{"name":"Tourelle de Tignosu","country":"France","website":null,"opening_hours":null,"capacity":null,"phone":null,"address":null,"ele":null,"osmType":"node","osmId":1327347740}},{"type":"Feature","geometry":{"type":"Point","coordinates":[8.7594,42.56518]},"properties":{"name":null,"country":"France","website":null,"opening_hours":null,"capacity":null,"phone":null,"address":null,"ele":null,"osmType":"node","osmId":1327347747}},{"type":"Feature","geometry":{"type":"Point","coordinates":[8.72451,42.58305]},"properties":{"name":"Phare de La Revellata","country":"France","website":null,"opening_hours":null,"capacity":null,"phone":null,"address":null,"ele":null,"osmType":"node","osmId":1327347761}},{"type":"Feature","geometry":{"type":"Point","coordinates":[8.53518,42.37227]},"properties":{"name":"Feu de Gargalo","country":"France","website":null,"opening_hours":null,"capacity":null,"phone":null,"address":null,"ele":null,"osmType":"node","osmId":1327347768}},{"type":"Feature","geometry":{"type":"Point","coordinates":[8.66125,41.74038]},"properties":{"name":"u Fanalettu","country":"France","website":null,"opening_hours":null,"capacity":null,"phone":null,"address":null,"ele":null,"osmType":"node","osmId":1327347827}},{"type":"Feature","geometry":{"type":"Point","coordinates":[9.15102,41.38995]},"properties":{"name":"Pointe de l'Arenella","country":"France","website":null,"opening_hours":null,"capacity":null,"phone":null,"address":null,"ele":null,"osmType":"node","osmId":1327347837}},{"type":"Feature","geometry":{"type":"Point","coordinates":[9.25903,41.33458]},"properties":{"name":"Phare des Lavezzi","country":"France","website":null,"opening_hours":null,"capacity":null,"phone":null,"address":null,"ele":null,"osmType":"node","osmId":1327347850}},{"type":"Feature","geometry":{"type":"Point","coordinates":[10.09624,42.58576]},"properties":{"name":null,"country":"France","website":null,"opening_hours":null,"capacity":null,"phone":null,"address":null,"ele":null,"osmType":"node","osmId":1340858043}},{"type":"Feature","geometry":{"type":"Point","coordinates":[9.84436,43.05118]},"properties":{"name":"Faro di Capraia","country":"France","website":null,"opening_hours":null,"capacity":null,"phone":null,"address":null,"ele":null,"osmType":"node","osmId":1340858068}},{"type":"Feature","geometry":{"type":"Point","coordinates":[7.13215,43.59065]},"properties":{"name":null,"country":"France","website":null,"opening_hours":null,"capacity":null,"phone":null,"address":null,"ele":null,"osmType":"node","osmId":1420666104}},{"type":"Feature","geometry":{"type":"Point","coordinates":[7.11264,43.56254]},"properties":{"name":null,"country":"France","website":null,"opening_hours":null,"capacity":null,"phone":null,"address":null,"ele":null,"osmType":"node","osmId":1420666108}},{"type":"Feature","geometry":{"type":"Point","coordinates":[7.06159,43.56817]},"properties":{"name":"Phare de Vallauris","country":"France","website":null,"opening_hours":null,"capacity":null,"phone":null,"address":null,"ele":null,"osmType":"node","osmId":1420666111}},{"type":"Feature","geometry":{"type":"Point","coordinates":[7.02964,43.54118]},"properties":{"name":null,"country":"France","website":null,"opening_hours":null,"capacity":null,"phone":null,"address":null,"ele":null,"osmType":"node","osmId":1420666116}},{"type":"Feature","geometry":{"type":"Point","coordinates":[7.01768,43.54507]},"properties":{"name":"Môle de l'Ouest","country":"France","website":null,"opening_hours":null,"capacity":null,"phone":null,"address":null,"ele":null,"osmType":"node","osmId":1420666117}},{"type":"Feature","geometry":{"type":"Point","coordinates":[6.78154,43.40911]},"properties":{"name":null,"country":"France","website":null,"opening_hours":null,"capacity":null,"phone":null,"address":null,"ele":null,"osmType":"node","osmId":1420666131}},{"type":"Feature","geometry":{"type":"Point","coordinates":[6.7735,43.41593]},"properties":{"name":null,"country":"France","website":null,"opening_hours":null,"capacity":null,"phone":null,"address":null,"ele":null,"osmType":"node","osmId":1420666132}},{"type":"Feature","geometry":{"type":"Point","coordinates":[6.74999,43.41983]},"properties":{"name":null,"country":"France","website":null,"opening_hours":null,"capacity":null,"phone":null,"address":null,"ele":null,"osmType":"node","osmId":1420666134}},{"type":"Feature","geometry":{"type":"Point","coordinates":[6.75069,43.41932]},"properties":{"name":null,"country":"France","website":null,"opening_hours":null,"capacity":null,"phone":null,"address":null,"ele":null,"osmType":"node","osmId":1420666135}},{"type":"Feature","geometry":{"type":"Point","coordinates":[6.73141,43.39295]},"properties":{"name":null,"country":"France","website":null,"opening_hours":null,"capacity":null,"phone":null,"address":null,"ele":null,"osmType":"node","osmId":1420666136}},{"type":"Feature","geometry":{"type":"Point","coordinates":[6.71796,43.35938]},"properties":{"name":null,"country":"France","website":null,"opening_hours":null,"capacity":null,"phone":null,"address":null,"ele":null,"osmType":"node","osmId":1420666137}},{"type":"Feature","geometry":{"type":"Point","coordinates":[6.68519,43.33996]},"properties":{"name":null,"country":"France","website":null,"opening_hours":null,"capacity":null,"phone":null,"address":null,"ele":null,"osmType":"node","osmId":1420666138}},{"type":"Feature","geometry":{"type":"Point","coordinates":[6.68533,43.33945]},