{"type":"FeatureCollection","features":[{"type":"Feature","geometry":{"type":"Point","coordinates":[134.64319,34.23914]},"properties":{"name":"孫崎灯台","country":"Japan","website":null,"opening_hours":null,"capacity":null,"phone":null,"address":null,"osmType":"node","osmId":265049730}},{"type":"Feature","geometry":{"type":"Point","coordinates":[135.86194,33.4716]},"properties":{"name":"樫野埼灯台","country":"Japan","website":null,"opening_hours":null,"capacity":null,"phone":null,"address":null,"osmType":"node","osmId":289118554}},{"type":"Feature","geometry":{"type":"Point","coordinates":[139.56482,35.28451]},"properties":{"name":null,"country":"Japan","website":null,"opening_hours":null,"capacity":null,"phone":null,"address":null,"osmType":"node","osmId":316058290}},{"type":"Feature","geometry":{"type":"Point","coordinates":[134.69903,33.95427]},"properties":{"name":null,"country":"Japan","website":null,"opening_hours":null,"capacity":null,"phone":null,"address":null,"osmType":"node","osmId":387744952}},{"type":"Feature","geometry":{"type":"Point","coordinates":[132.7559,34.27994]},"properties":{"name":null,"country":"Japan","website":null,"opening_hours":null,"capacity":null,"phone":null,"address":null,"osmType":"node","osmId":399909338}},{"type":"Feature","geometry":{"type":"Point","coordinates":[135.00046,34.28091]},"properties":{"name":null,"country":"Japan","website":null,"opening_hours":null,"capacity":null,"phone":null,"address":null,"osmType":"node","osmId":401630316}},{"type":"Feature","geometry":{"type":"Point","coordinates":[135.55033,35.49678]},"properties":{"name":"若狭高浜島堤燈台","country":"Japan","website":null,"opening_hours":null,"capacity":null,"phone":null,"address":null,"osmType":"node","osmId":402350938}},{"type":"Feature","geometry":{"type":"Point","coordinates":[135.45896,34.58349]},"properties":{"name":"旧堺燈台","country":"Japan","website":null,"opening_hours":null,"capacity":null,"phone":"+81 72 228 7198","address":"590-0974 堺市, JP","osmType":"node","osmId":462138633}},{"type":"Feature","geometry":{"type":"Point","coordinates":[140.11396,41.86819]},"properties":{"name":"鴎島灯台","country":"Japan","website":null,"opening_hours":null,"capacity":null,"phone":null,"address":null,"osmType":"node","osmId":473368158}},{"type":"Feature","geometry":{"type":"Point","coordinates":[133.55811,33.5041]},"properties":{"name":null,"country":"Japan","website":null,"opening_hours":null,"capacity":null,"phone":null,"address":null,"osmType":"node","osmId":564443271}},{"type":"Feature","geometry":{"type":"Point","coordinates":[134.05521,34.36111]},"properties":{"name":null,"country":"Japan","website":null,"opening_hours":null,"capacity":null,"phone":null,"address":null,"osmType":"node","osmId":742454518}},{"type":"Feature","geometry":{"type":"Point","coordinates":[136.99413,35.3416]},"properties":{"name":"品川燈台","country":"Japan","website":null,"opening_hours":null,"capacity":null,"phone":null,"address":null,"osmType":"node","osmId":746458514}},{"type":"Feature","geometry":{"type":"Point","coordinates":[140.63229,36.50936]},"properties":{"name":"日立灯台","country":"Japan","website":null,"opening_hours":null,"capacity":null,"phone":null,"address":null,"osmType":"node","osmId":752443273}},{"type":"Feature","geometry":{"type":"Point","coordinates":[130.86243,34.11007]},"properties":{"name":"本州最西端の地","country":"Japan","website":null,"opening_hours":null,"capacity":null,"phone":null,"address":null,"osmType":"node","osmId":920270978}},{"type":"Feature","geometry":{"type":"Point","coordinates":[133.0902,35.60257]},"properties":{"name":null,"country":"Japan","website":null,"opening_hours":null,"capacity":null,"phone":null,"address":null,"osmType":"node","osmId":928125980}},{"type":"Feature","geometry":{"type":"Point","coordinates":[132.0828,32.9325]},"properties":{"name":"鶴御崎灯台","country":"Japan","website":null,"opening_hours":null,"capacity":null,"phone":null,"address":null,"osmType":"node","osmId":929170638}},{"type":"Feature","geometry":{"type":"Point","coordinates":[132.01494,33.34308]},"properties":{"name":"佐田岬灯台","country":"Japan","website":null,"opening_hours":null,"capacity":null,"phone":null,"address":null,"osmType":"node","osmId":930008912}},{"type":"Feature","geometry":{"type":"Point","coordinates":[131.68539,32.42337]},"properties":{"name":"細島灯台","country":"Japan","website":null,"opening_hours":null,"capacity":null,"phone":null,"address":null,"osmType":"node","osmId":951252217}},{"type":"Feature","geometry":{"type":"Point","coordinates":[133.05305,35.46333]},"properties":{"name":"青柳楼の大灯籠","country":"Japan","website":null,"opening_hours":null,"capacity":null,"phone":null,"address":null,"osmType":"node","osmId":1009513807}},{"type":"Feature","geometry":{"type":"Point","coordinates":[134.0611,34.36671]},"properties":{"name":null,"country":"Japan","website":null,"opening_hours":null,"capacity":null,"phone":null,"address":null,"osmType":"node","osmId":1034841734}},{"type":"Feature","geometry":{"type":"Point","coordinates":[134.05886,34.36043]},"properties":{"name":null,"country":"Japan","website":null,"opening_hours":null,"capacity":null,"phone":null,"address":null,"osmType":"node","osmId":1034841844}},{"type":"Feature","geometry":{"type":"Point","coordinates":[135.07066,34.27926]},"properties":{"name":null,"country":"Japan","website":null,"opening_hours":null,"capacity":null,"phone":null,"address":null,"osmType":"node","osmId":1166240321}},{"type":"Feature","geometry":{"type":"Point","coordinates":[141.53414,40.53826]},"properties":{"name":"八戸港白銀西防波堤西灯台","country":"Japan","website":null,"opening_hours":null,"capacity":null,"phone":null,"address":null,"osmType":"node","osmId":1196973887}},{"type":"Feature","geometry":{"type":"Point","coordinates":[141.54824,40.5394]},"properties":{"name":"八戸港白銀北防波堤灯台","country":"Japan","website":null,"opening_hours":null,"capacity":null,"phone":null,"address":null,"osmType":"node","osmId":1196973907}},{"type":"Feature","geometry":{"type":"Point","coordinates":[141.53499,40.56584]},"properties":{"name":"八戸港中央防波堤北灯台","country":"Japan","website":null,"opening_hours":null,"capacity":null,"phone":null,"address":null,"osmType":"node","osmId":1196973908}},{"type":"Feature","geometry":{"type":"Point","coordinates":[141.54684,40.53778]},"properties":{"name":"八戸港白銀西防波堤東灯台","country":"Japan","website":null,"opening_hours":null,"capacity":null,"phone":null,"address":null,"osmType":"node","osmId":1196973925}},{"type":"Feature","geometry":{"type":"Point","coordinates":[141.51455,40.55242]},"properties":{"name":"八戸港八太郎東防波堤灯台","country":"Japan","website":null,"opening_hours":null,"capacity":null,"phone":null,"address":null,"osmType":"node","osmId":1197003633}},{"type":"Feature","geometry":{"type":"Point","coordinates":[142.39618,45.13507]},"properties":{"name":null,"country":"Japan","website":null,"opening_hours":null,"capacity":null,"phone":null,"address":null,"osmType":"node","osmId":1211610665}},{"type":"Feature","geometry":{"type":"Point","coordinates":[142.5013,45.05886]},"properties":{"name":"北見神威岬灯台","country":"Japan","website":null,"opening_hours":null,"capacity":null,"phone":null,"address":null,"osmType":"node","osmId":1211610669}},{"type":"Feature","geometry":{"type":"Point","coordinates":[142.51536,45.03886]},"properties":{"name":null,"country":"Japan","website":null,"opening_hours":null,"capacity":null,"phone":null,"address":null,"osmType":"node","osmId":1211610673}},{"type":"Feature","geometry":{"type":"Point","coordinates":[142.54667,44.9903]},"properties":{"name":null,"country":"Japan","website":null,"opening_hours":null,"capacity":null,"phone":null,"address":null,"osmType":"node","osmId":1211610678}},{"type":"Feature","geometry":{"type":"Point","coordinates":[145.54009,43.66067]},"properties":{"name":null,"country":"Japan","website":null,"opening_hours":null,"capacity":null,"phone":null,"address":null,"osmType":"node","osmId":1211610902}},{"type":"Feature","geometry":{"type":"Point","coordinates":[146.35634,43.61864]},"properties":{"name":"Полонского","country":"Japan","website":null,"opening_hours":null,"capacity":null,"phone":null,"address":null,"osmType":"node","osmId":1211610981}},{"type":"Feature","geometry":{"type":"Point","coordinates":[146.27036,43.62781]},"properties":{"name":null,"country":"Japan","website":null,"opening_hours":null,"capacity":null,"phone":null,"address":null,"osmType":"node","osmId":1211610988}},{"type":"Feature","geometry":{"type":"Point","coordinates":[146.20249,43.53226]},"properties":{"name":null,"country":"Japan","website":null,"opening_hours":null,"capacity":null,"phone":null,"address":null,"osmType":"node","osmId":1211611011}},{"type":"Feature","geometry":{"type":"Point","coordinates":[145.85831,43.39605]},"properties":{"name":"Сигнальный","country":"Japan","website":null,"opening_hours":null,"capacity":null,"phone":null,"address":null,"osmType":"node","osmId":1211611233}},{"type":"Feature","geometry":{"type":"Point","coordinates":[145.89959,43.41699]},"properties":{"name":null,"country":"Japan","website":null,"opening_hours":null,"capacity":null,"phone":null,"address":null,"osmType":"node","osmId":1211611250}},{"type":"Feature","geometry":{"type":"Point","coordinates":[145.94938,43.45381]},"properties":{"name":null,"country":"Japan","website":null,"opening_hours":null,"capacity":null,"phone":null,"address":null,"osmType":"node","osmId":1211611258}},{"type":"Feature","geometry":{"type":"Point","coordinates":[140.03307,41.4436]},"properties":{"name":"ヨシ島灯台","country":"Japan","website":null,"opening_hours":null,"capacity":null,"phone":null,"address":"049-1641 松前町","osmType":"node","osmId":1211612045}},{"type":"Feature","geometry":{"type":"Point","coordinates":[140.12179,41.87565]},"properties":{"name":null,"country":"Japan","website":null,"opening_hours":null,"capacity":null,"phone":null,"address":null,"osmType":"node","osmId":1211612109}},{"type":"Feature","geometry":{"type":"Point","coordinates":[140.12219,41.87046]},"properties":{"name":null,"country":"Japan","website":null,"opening_hours":null,"capacity":null,"phone":null,"address":null,"osmType":"node","osmId":1211612111}},{"type":"Feature","geometry":{"type":"Point","coordinates":[141.42706,38.29642]},"properties":{"name":null,"country":"Japan","website":null,"opening_hours":null,"capacity":null,"phone":null,"address":null,"osmType":"node","osmId":1211619428}},{"type":"Feature","geometry":{"type":"Point","coordinates":[141.05177,38.32325]},"properties":{"name":null,"country":"Japan","website":null,"opening_hours":null,"capacity":null,"phone":null,"address":null,"osmType":"node","osmId":1211619596}},{"type":"Feature","geometry":{"type":"Point","coordinates":[141.04165,38.27007]},"properties":{"name":null,"country":"Japan","website":null,"opening_hours":null,"capacity":null,"phone":null,"address":null,"osmType":"node","osmId":1211619636}},{"type":"Feature","geometry":{"type":"Point","coordinates":[141.04698,38.26558]},"properties":{"name":"政宗灯台","country":"Japan","website":null,"opening_hours":null,"capacity":null,"phone":null,"address":null,"osmType":"node","osmId":1211619644}},{"type":"Feature","geometry":{"type":"Point","coordinates":[140.86525,35.6929]},"properties":{"name":"長崎鼻一ノ島照射灯","country":"Japan","website":null,"opening_hours":null,"capacity":null,"phone":null,"address":null,"osmType":"node","osmId":1211620269}},{"type":"Feature","geometry":{"type":"Point","coordinates":[140.73933,35.69318]},"properties":{"name":"刑部岬灯台","country":"Japan","website":null,"opening_hours":null,"capacity":null,"phone":null,"address":null,"osmType":"node","osmId":1211620275}},{"type":"Feature","geometry":{"type":"Point","coordinates":[140.41293,35.30817]},"properties":{"name":null,"country":"Japan","website":null,"opening_hours":null,"capacity":null,"phone":null,"address":null,"osmType":"node","osmId":1211620281}},{"type":"Feature","geometry":{"type":"Point","coordinates":[140.31911,35.13798]},"properties":{"name":"勝浦灯台","country":"Japan","website":null,"opening_hours":null,"capacity":null,"phone":null,"address":null,"osmType":"node","osmId":1211620322}},{"type":"Feature","geometry":{"type":"Point","coordinates":[139.48984,34.11287]},"properties":{"name":"伊豆岬灯台","country":"Japan","website":null,"opening_hours":null,"capacity":null,"phone":null,"address":null,"osmType":"node","osmId":1211620398}},{"type":"Feature","geometry":{"type":"Point","coordinates":[139.53201,34.12547]},"properties":{"name":null,"country":"Japan","website":null,"opening_hours":null,"capacity":null,"phone":null,"address":null,"osmType":"node","osmId":1211620402}},{"type":"Feature","geometry":{"type":"Point","coordinates":[139.56565,34.09348]},"properties":{"name":null,"country":"Japan","website":null,"opening_hours":null,"capacity":null,"phone":null,"address":null,"osmType":"node","osmId":1211620408}},{"type":"Feature","geometry":{"type":"Point","coordinates":[139.56669,34.08035]},"properties":{"name":null,"country":"Japan","website":null,"opening_hours":null,"capacity":null,"phone":null,"address":null,"osmType":"node","osmId":1211620411}},{"type":"Feature","geometry":{"type":"Point","coordinates":[139.5461,34.05617]},"properties":{"name":null,"country":"Japan","website":null,"opening_hours":null,"capacity":null,"phone":null,"address":null,"osmType":"node","osmId":1211620414}},{"type":"Feature","geometry":{"type":"Point","coordinates":[139.47751,34.06785]},"properties":{"name":null,"country":"Japan","website":null,"opening_hours":null,"capacity":null,"phone":null,"address":null,"osmType":"node","osmId":1211620420}},{"type":"Feature","geometry":{"type":"Point","coordinates":[139.47941,34.06615]},"properties":{"name":null,"country":"Japan","website":null,"opening_hours":null,"capacity":null,"phone":null,"address":null,"osmType":"node","osmId":1211620422}},{"type":"Feature","geometry":{"type":"Point","coordinates":[139.67817,35.14285]},"properties":{"name":null,"country":"Japan","website":null,"opening_hours":null,"capacity":null,"phone":null,"address":null,"osmType":"node","osmId":1211620629}},{"type":"Feature","geometry":{"type":"Point","coordinates":[139.74528,35.25614]},"properties":{"name":"Kannonzaki Lighthouse","country":"Japan","website":null,"opening_hours":null,"capacity":null,"phone":null,"address":null,"osmType":"node","osmId":1211620706}},{"type":"Feature","geometry":{"type":"Point","coordinates":[139.74132,35.31171]},"properties":{"name":null,"country":"Japan","website":null,"opening_hours":null,"capacity":null,"phone":null,"address":null,"osmType":"node","osmId":1211620718}},{"type":"Feature","geometry":{"type":"Point","coordinates":[139.82813,35.61204]},"properties":{"name":null,"country":"Japan","website":null,"opening_hours":null,"capacity":null,"phone":null,"address":null,"osmType":"node","osmId":1211620954}},{"type":"Feature","geometry":{"type":"Point","coordinates":[139.61113,35.13508]},"properties":{"name":"城ヶ島灯台","country":"Japan","website":null,"opening_hours":null,"capacity":null,"phone":null,"address":null,"osmType":"node","osmId":1211621029}},{"type":"Feature","geometry":{"type":"Point","coordinates":[139.6072,35.13932]},"properties":{"name":"Jogashima","country":"Japan","website":null,"opening_hours":null,"capacity":null,"phone":null,"address":null,"osmType":"node","osmId":1211621032}},{"type":"Feature","geometry":{"type":"Point","coordinates":[139.60919,35.1399]},"properties":{"name":null,"country":"Japan","website":null,"opening_hours":null,"capacity":null,"phone":null,"address":null,"osmType":"node","osmId":1211621036}},{"type":"Feature","geometry":{"type":"Point","coordinates":[139.62795,35.13458]},"properties":{"name":null,"country":"Japan","website":null,"opening_hours":null,"capacity":null,"phone":null,"address":null,"osmType":"node","osmId":1211621042}},{"type":"Feature","geometry":{"type":"Point","coordinates":[139.60755,35.1556]},"properties":{"name":null,"country":"Japan","website":null,"opening_hours":null,"capacity":null,"phone":null,"address":null,"osmType":"node","osmId":1211621044}},{"type":"Feature","geometry":{"type":"Point","coordinates":[139.47847,35.29975]},"properties":{"name":null,"country":"Japan","website":null,"opening_hours":null,"capacity":null,"phone":null,"address":null,"osmType":"node","osmId":1211621080}},{"type":"Feature","geometry":{"type":"Point","coordinates":[139.37233,34.79757]},"properties":{"name":null,"country":"Japan","website":null,"opening_hours":null,"capacity":null,"phone":null,"address":null,"osmType":"node","osmId":1211621146}},{"type":"Feature","geometry":{"type":"Point","coordinates":[139.4427,34.68131]},"properties":{"name":null,"country":"Japan","website":null,"opening_hours":null,"capacity":null,"phone":null,"address":null,"osmType":"node","osmId":1211621154}},{"type":"Feature","geometry":{"type":"Point","coordinates":[139.44316,34.68577]},"properties":{"name":"竜王崎灯台","country":"Japan","website":null,"opening_hours":null,"capacity":null,"phone":null,"address":null,"osmType":"node","osmId":1211621162}},{"type":"Feature","geometry":{"type":"Point","coordinates":[139.34866,34.75184]},"properties":{"name":"元町港突堤灯台","country":"Japan","website":null,"opening_hours":null,"capacity":null,"phone":null,"address":null,"osmType":"node","osmId":1211621177}},{"type":"Feature","geometry":{"type":"Point","coordinates":[137.59774,34.67308]},"properties":{"name":null,"country":"Japan","website":null,"opening_hours":null,"capacity":null,"phone":null,"address":null,"osmType":"node","osmId":1211621585}},{"type":"Feature","geometry":{"type":"Point","coordinates":[134.82816,34.16829]},"properties":{"name":"沼島灯台","country":"Japan","website":null,"opening_hours":null,"capacity":null,"phone":null,"address":null,"osmType":"node","osmId":1223938561}},{"type":"Feature","geometry":{"type":"Point","coordinates":[134.81657,34.16993]},"properties":{"name":"沼島港西防波堤灯台","country":"Japan","website":null,"opening_hours":null,"capacity":null,"phone":null,"address":null,"osmType":"node","osmId":1223938562}},{"type":"Feature","geometry":{"type":"Point","coordinates":[134.81957,34.1722]},"properties":{"name":"沼島港泊防波堤灯台","country":"Japan","website":null,"opening_hours":null,"capacity":null,"phone":null,"address":null,"osmType":"node","osmId":1223938563}},{"type":"Feature","geometry":{"type":"Point","coordinates":[134.79737,34.19743]},"properties":{"name":null,"country":"Japan","website":null,"opening_hours":null,"capacity":null,"phone":null,"address":null,"osmType":"node","osmId":1223938564}},{"type":"Feature","geometry":{"type":"Point","coordinates":[135.34563,34.4712]},"properties":{"name":"阪南港阪南二区南防波堤灯台","country":"Japan","website":null,"opening_hours":null,"capacity":null,"phone":null,"address":null,"osmType":"node","osmId":1223938610}},{"type":"Feature","geometry":{"type":"Point","coordinates":[135.40937,34.55796]},"properties":{"name":"堺浜寺北防波堤灯台","country":"Japan","website":null,"opening_hours":null,"capacity":null,"phone":null,"address":null,"osmType":"node","osmId":1223938622}},{"type":"Feature","geometry":{"type":"Point","coordinates":[135.40936,34.55497]},"properties":{"name":"堺浜寺南防波堤灯台","country":"Japan","website":null,"opening_hours":null,"capacity":null,"phone":null,"address":null,"osmType":"node","osmId":1223938624}},{"type":"Feature","geometry":{"type":"Point","coordinates":[135.39648,34.59561]},"properties":{"name":"大阪港大和川南防波堤南灯台","country":"Japan","website":null,"opening_hours":null,"capacity":null,"phone":null,"address":null,"osmType":"node","osmId":1223938627}},{"type":"Feature","geometry":{"type":"Point","coordinates":[135.38801,34.6051]},"properties":{"name":"大阪港大和川南防波堤北灯台","country":"Japan","website":null,"opening_hours":null,"capacity":null,"phone":null,"address":null,"osmType":"node","osmId":1223938628}},{"type":"Feature","geometry":{"type":"Point","coordinates":[135.40129,34.61081]},"properties":{"name":"大阪港大和川北防波堤灯台","country":"Japan","website":null,"opening_hours":null,"capacity":null,"phone":null,"address":null,"osmType":"node","osmId":1223938629}},{"type":"Feature","geometry":{"type":"Point","coordinates":[135.42063,34.61083]},"properties":{"name":"大阪南港沖防波堤灯台","country":"Japan","website":null,"opening_hours":null,"capacity":null,"phone":null,"address":null,"osmType":"node","osmId":1223938630}},{"type":"Feature","geometry":{"type":"Point","coordinates":[135.39657,34.62868]},"properties":{"name":null,"country":"Japan","website":null,"opening_hours":null,"capacity":null,"phone":null,"address":null,"osmType":"node","osmId":1223938632}},{"type":"Feature","geometry":{"type":"Point","coordinates":[135.38956,34.62834]},"properties":{"name":null,"country":"Japan","website":null,"opening_hours":null,"capacity":null,"phone":null,"address":null,"osmType":"node","osmId":1223938633}},{"type":"Feature","geometry":{"type":"Point","coordinates":[135.34508,34.71968]},"properties":{"name":"大関酒造今津灯台","country":"Japan","website":null,"opening_hours":null,"capacity":null,"phone":null,"address":null,"osmType":"node","osmId":1223938642}},{"type":"Feature","geometry":{"type":"Point","coordinates":[135.18866,34.67974]},"properties":{"name":"神戸メリケンパークオリエンタルホテル灯台","country":"Japan","website":null,"opening_hours":null,"capacity":null,"phone":null,"address":null,"osmType":"node","osmId":1223938643}},{"type":"Feature","geometry":{"type":"Point","coordinates":[135.2453,34.67065]},"properties":{"name":null,"country":"Japan","website":null,"opening_hours":null,"capacity":null,"phone":null,"address":null,"osmType":"node","osmId":1223938648}},{"type":"Feature","geometry":{"type":"Point","coordinates":[135.25392,34.66883]},"properties":{"name":null,"country":"Japan","website":null,"opening_hours":null,"capacity":null,"phone":null,"address":null,"osmType":"node","osmId":1223938650}},{"type":"Feature","geometry":{"type":"Point","coordinates":[135.29589,34.67622]},"properties":{"name":null,"country":"Japan","website":null,"opening_hours":null,"capacity":null,"phone":null,"address":null,"osmType":"node","osmId":1223938651}},{"type":"Feature","geometry":{"type":"Point","coordinates":[135.31337,34.67776]},"properties":{"name":null,"country":"Japan","website":null,"opening_hours":null,"capacity":null,"phone":null,"address":null,"osmType":"node","osmId":1223938652}},{"type":"Feature","geometry":{"type":"Point","coordinates":[135.2043,34.65627]},"properties":{"name":null,"country":"Japan","website":null,"opening_hours":null,"capacity":null,"phone":null,"address":null,"osmType":"node","osmId":1223938658}},{"type":"Feature","geometry":{"type":"Point","coordinates":[135.20438,34.65151]},"properties":{"name":null,"country":"Japan","website":null,"opening_hours":null,"capacity":null,"phone":null,"address":null,"osmType":"node","osmId":1223938659}},{"type":"Feature","geometry":{"type":"Point","coordinates":[135.18754,34.65272]},"properties":{"name":null,"country":"Japan","website":null,"opening_hours":null,"capacity":null,"phone":null,"address":null,"osmType":"node","osmId":1223938663}},{"type":"Feature","geometry":{"type":"Point","coordinates":[135.1508,34.64559]},"properties":{"name":null,"country":"Japan","website":null,"opening_hours":null,"capacity":null,"phone":null,"address":null,"osmType":"node","osmId":1223938667}},{"type":"Feature","geometry":{"type":"Point","coordinates":[134.29513,34.6806]},"properties":{"name":"大多府島灯台","country":"Japan","website":null,"opening_hours":null,"capacity":null,"phone":null,"address":null,"osmType":"node","osmId":1223938752}},{"type":"Feature","geometry":{"type":"Point","coordinates":[134.58323,34.65783]},"properties":{"name":"男鹿島灯台","country":"Japan","website":null,"opening_hours":null,"capacity":null,"phone":null,"address":null,"osmType":"node","osmId":1223938763}},{"type":"Feature","geometry":{"type":"Point","coordinates":[134.43547,34.65131]},"properties":{"name":"院下島灯台","country":"Japan","website":null,"opening_hours":null,"capacity":null,"phone":null,"address":null,"osmType":"node","osmId":1223938772}},{"type":"Feature","geometry":{"type":"Point","coordinates":[133.97049,34.45679]},"properties":{"name":null,"country":"Japan","website":null,"opening_hours":null,"capacity":null,"phone":null,"address":null,"osmType":"node","osmId":1223939065}},{"type":"Feature","geometry":{"type":"Point","coordinates":[134.05304,34.38824]},"properties":{"name":"Ogre's Light House","country":"Japan","website":null,"opening_hours":null,"capacity":null,"phone":null,"address":null,"osmType":"node","osmId":1223939082}},{"type":"Feature","geometry":{"type":"Point","coordinates":[134.05123,34.38843]},"properties":{"name":"Red Light House","country":"Japan","website":null,"opening_hours":null,"capacity":null,"phone":null,"address":null,"osmType":"node","osmId":1223939083}},{"type":"Feature","geometry":{"type":"Point","coordinates":[134.03804,34.38001]},"properties":{"name":null,"country":"Japan","website":null,"opening_hours":null,"capacity":null,"phone":null,"address":null,"osmType":"node","osmId":1223939084}},{"type":"Feature","geometry":{"type":"Point","coordinates":[133.53376,34.30004]},"properties":{"name":"六島灯台","country":"Japan","website":null,"opening_hours":null,"capacity":null,"phone":null,"address":null,"osmType":"node","osmId":1223939142}},{"type":"Feature","geometry":{"type":"Point","coordinates":[133.26784,34.1952]},"properties":{"name":"高井神島灯台","country":"Japan","website":null,"opening_hours":null,"capacity":null,"phone":null,"address":null,"osmType":"node","osmId":1223939144}},{"type":"Feature","geometry":{"type":"Point","coordinates":[133.09816,34.05853]},"properties":{"name":null,"country":"Japan","website":null,"opening_hours":null,"capacity":null,"phone":null,"address":null,"osmType":"node","osmId":1223939273}},{"type":"Feature","geometry":{"type":"Point","coordinates":[132.99609,34.11813]},"properties":{"name":"ナガセ鼻灯台","country":"Japan","website":"https://www.kaiho.mlit.go.jp/06kanku/imabari/","opening_hours":null,"capacity":null,"phone":null,"address":null,"osmType":"node","osmId":1223939285}},{"type":"Feature","geometry":{"type":"Point","coordinates":[132.89258,34.11827]},"properties":{"name":null,"country":"Japan","website":null,"opening_hours":null,"capacity":null,"phone":null,"address":null,"osmType":"node","osmId":1223939294}},{"type":"Feature","geometry":{"type":"Point","coordinates":[132.13411,33.71364]},"properties":{"name":"八島灯台","country":"Japan","website":null,"opening_hours":null,"capacity":null,"phone":null,"address":null,"osmType":"node","osmId":1223939418}},{"type":"Feature","geometry":{"type":"Point","coordinates":[131.70068,33.73065]},"properties":{"name":"姫島灯台","country":"Japan","website":null,"opening_hours":null,"capacity":null,"phone":null,"address":null,"osmType":"node","osmId":1223939600}},{"type":"Feature","geometry":{"type":"Point","coordinates":[130.9539,33.96175]},"properties":{"name":null,"country":"Japan","website":null,"opening_hours":null,"capacity":null,"phone":null,"address":null,"osmType":"node","osmId":1223939632}},{"type":"Feature","geometry":{"type":"Point","coordinates":[130.96231,33.95489]},"properties":{"name":null,"country":"Japan","website":null,"opening_hours":null,"capacity":null,"phone":null,"address":null,"osmType":"node","osmId":1223939636}},{"type":"Feature","geometry":{"type":"Point","coordinates":[130.68691,31.02364]},"properties":{"name":null,"country":"Japan","website":null,"opening_hours":null,"capacity":null,"phone":null,"address":null,"osmType":"node","osmId":1223941434}},{"type":"Feature","geometry":{"type":"Point","coordinates":[130.65949,30.99213]},"properties":{"name":"佐多岬灯台","country":"Japan","website":null,"opening_hours":null,"capacity":null,"phone":null,"address":null,"osmType":"node","osmId":1223941437}},{"type":"Feature","geometry":{"type":"Point","coordinates":[130.44934,33.78639]},"properties":{"name":null,"country":"Japan","website":null,"opening_hours":null,"capacity":null,"phone":null,"address":null,"osmType":"node","osmId":1223942309}},{"type":"Feature","geometry":{"type":"Point","coordinates":[139.65163,35.44683]},"properties":{"name":"旧横浜東水堤灯台","country":"Japan","website":null,"opening_hours":null,"capacity":null,"phone":null,"address":null,"osmType":"node","osmId":1271628898}},{"type":"Feature","geometry":{"type":"Point","coordinates":[133.02029,32.72403]},"properties":{"name":"足摺岬灯台","country":"Japan","website":null,"opening_hours":null,"capacity":null,"phone":null,"address":null,"osmType":"node","osmId":1275225566}},{"type":"Feature","geometry":{"type":"Point","coordinates":[132.96514,32.73172]},"properties":{"name":"臼碆灯台","country":"Japan","website":null,"opening_hours":null,"capacity":null,"phone":null,"address":null,"osmType":"node","osmId":1331979329}},{"type":"Feature","geometry":{"type":"Point","coordinates":[136.92791,34.41333]},"properties":{"name":"錨崎灯台","country":"Japan","website":null,"opening_hours":null,"capacity":null,"phone":null,"address":null,"osmType":"node","osmId":1384378045}},{"type":"Feature","geometry":{"type":"Point","coordinates":[137.01622,34.57941]},"properties":{"name":"伊良湖岬灯台","country":"Japan","website":null,"opening_hours":null,"capacity":null,"phone":null,"address":null,"osmType":"node","osmId":1385388172}},{"type":"Feature","geometry":{"type":"Point","coordinates":[138.84519,34.60273]},"properties":{"name":"石廊崎灯台","country":"Japan","website":"https://www.minami-izu.jp/entry.html?id=3406","opening_hours":null,"capacity":null,"phone":null,"address":"125, 415-0156 南伊豆町","osmType":"node","osmId":1385403405}},{"type":"Feature","geometry":{"type":"Point","coordinates":[131.90221,33.26674]},"properties":{"name":"関埼灯台","country":"Japan","website":null,"opening_hours":null,"capacity":null,"phone":null,"address":null,"osmType":"node","osmId":1415743064}},{"type":"Feature","geometry":{"type":"Point","coordinates":[140.18983,42.82493]},"properties":{"name":"弁慶岬灯台","country":"Japan","website":null,"opening_hours":null,"capacity":null,"phone":null,"address":null,"osmType":"node","osmId":1461097728}},{"type":"Feature","geometry":{"type":"Point","coordinates":[141.18346,41.81522]},"properties":{"name":"恵山岬灯台","country":"Japan","website":null,"opening_hours":null,"capacity":null,"phone":null,"address":null,"osmType":"node","osmId":1467565514}},{"type":"Feature","geometry":{"type":"Point","coordinates":[140.86853,35.70791]},"properties":{"name":"犬吠埼燈台","country":"Japan","website":null,"opening_hours":"08:30-16:00","capacity":null,"phone":null,"address":null,"osmType":"node","osmId":1582440591}},{"type":"Feature","geometry":{"type":"Point","coordinates":[138.53041,35.01063]},"properties":{"name":"清水灯台","country":"Japan","website":null,"opening_hours":null,"capacity":null,"phone":null,"address":null,"osmType":"node","osmId":1785723073}},{"type":"Feature","geometry":{"type":"Point","coordinates":[138.51602,35.02065]},"properties":{"name":"清水真崎灯台","country":"Japan","website":null,"opening_hours":null,"capacity":null,"phone":null,"address":null,"osmType":"node","osmId":1785723074}},{"type":"Feature","geometry":{"type":"Point","coordinates":[129.43038,33.4398]},"properties":{"name":"大バエ灯台","country":"Japan","website":null,"opening_hours":null,"capacity":null,"phone":null,"address":null,"osmType":"node","osmId":1801645273}},{"type":"Feature","geometry":{"type":"Point","coordinates":[138.22571,34.59583]},"properties":{"name":"御前埼灯台","country":"Japan","website":null,"opening_hours":null,"capacity":null,"phone":null,"address":null,"osmType":"node","osmId":1804881162}},{"type":"Feature","geometry":{"type":"Point","coordinates":[139.9977,41.64899]},"properties":{"name":"日方泊岬灯台","country":"Japan","website":null,"opening_hours":null,"capacity":null,"phone":null,"address":null,"osmType":"node","osmId":1817092701}},{"type":"Feature","geometry":{"type":"Point","coordinates":[131.33595,31.36191]},"properties":{"name":null,"country":"Japan","website":null,"opening_hours":null,"capacity":null,"phone":null,"address":null,"osmType":"node","osmId":1916559331}},{"type":"Feature","geometry":{"type":"Point","coordinates":[135.06111,33.88194]},"properties":{"name":"日ノ御埼 (Kii Hi-no-Misaki Todai; Lighthouse)","country":"Japan","website":null,"opening_hours":null,"capacity":null,"phone":null,"address":null,"osmType":"node","osmId":1920874662}},{"type":"Feature","geometry":{"type":"Point","coordinates":[130.85056,33.94111]},"properties":{"name":"Wakamatu Dokai Wan Ko (Entrance) Bohatei (Breakwater) Todai (Lighthouse)","country":"Japan","website":null,"opening_hours":null,"capacity":null,"phone":null,"address":null,"osmType":"node","osmId":1920874663}},{"type":"Feature","geometry":{"type":"Point","coordinates":[140.04206,41.44452]},"properties":{"name":"館浜漁港灯台","country":"Japan","website":null,"opening_hours":null,"capacity":null,"phone":null,"address":"049-1641 松前町","osmType":"node","osmId":1924799765}},{"type":"Feature","geometry":{"type":"Point","coordinates":[140.09432,41.42085]},"properties":{"name":"松前港灯台","country":"Japan","website":null,"opening_hours":null,"capacity":null,"phone":null,"address":"049-1502 松前町","osmType":"node","osmId":1924800905}},{"type":"Feature","geometry":{"type":"Point","coordinates":[140.0887,41.4189]},"properties":{"name":"松前灯台","country":"Japan","website":null,"opening_hours":null,"capacity":null,"phone":null,"address":"049-1502 松前町","osmType":"node","osmId":1924801254}},{"type":"Feature","geometry":{"type":"Point","coordinates":[140.02851,41.4683]},"properties":{"name":"札前漁港灯台","country":"Japan","website":null,"opening_hours":null,"capacity":null,"phone":null,"address":"049-1642 松前町","osmType":"node","osmId":1924801735}},{"type":"Feature","geometry":{"type":"Point","coordinates":[140.12681,41.42927]},"properties":{"name":"朝日漁港灯台","country":"Japan","website":null,"opening_hours":null,"capacity":null,"phone":null,"address":"049-1517 松前町","osmType":"node","osmId":1924801825}},{"type":"Feature","geometry":{"type":"Point","coordinates":[140.02346,41.48]},"properties":{"name":"赤神漁港灯台","country":"Japan","website":null,"opening_hours":null,"capacity":null,"phone":null,"address":"049-1643 松前町","osmType":"node","osmId":1924803451}},{"type":"Feature","geometry":{"type":"Point","coordinates":[140.01909,41.48394]},"properties":{"name":"静浦漁港灯台","country":"Japan","website":null,"opening_hours":null,"capacity":null,"phone":null,"address":"049-1644 松前町","osmType":"node","osmId":1924803982}},{"type":"Feature","geometry":{"type":"Point","coordinates":[140.01355,41.49396]},"properties":{"name":"茂草漁港灯台","country":"Japan","website":null,"opening_hours":null,"capacity":null,"phone":null,"address":"049-1645 松前町","osmType":"node","osmId":1924806259}},{"type":"Feature","geometry":{"type":"Point","coordinates":[140.00255,41.5216]},"properties":{"name":"清部漁港灯台","country":"Japan","website":null,"opening_hours":null,"capacity":null,"phone":null,"address":"049-1783 松前町","osmType":"node","osmId":1924807757}},{"type":"Feature","geometry":{"type":"Point","coordinates":[139.98608,41.54548]},"properties":{"name":"江良漁港灯台","country":"Japan","website":null,"opening_hours":null,"capacity":null,"phone":null,"address":"049-1771 松前町","osmType":"node","osmId":1924813101}},{"type":"Feature","geometry":{"type":"Point","coordinates":[139.98251,41.60445]},"properties":{"name":"原口漁港灯台","country":"Japan","website":null,"opening_hours":null,"capacity":null,"phone":null,"address":"049-1762 松前町","osmType":"node","osmId":1924814439}},{"type":"Feature","geometry":{"type":"Point","coordinates":[140.14212,41.42616]},"properties":{"name":"大沢漁港灯台","country":"Japan","website":null,"opening_hours":null,"capacity":null,"phone":null,"address":"049-1522 松前町","osmType":"node","osmId":1924823638}},{"type":"Feature","geometry":{"type":"Point","coordinates":[140.17136,41.41059]},"properties":{"name":"白神漁港灯台","country":"Japan","website":null,"opening_hours":null,"capacity":null,"phone":null,"address":"049-1524 松前町","osmType":"node","osmId":1924824373}},{"type":"Feature","geometry":{"type":"Point","coordinates":[140.19743,41.39807]},"properties":{"name":"白神岬灯台","country":"Japan","website":"https://www.kaiho.mlit.go.jp/01kanku/hakodate/gyoumusyoukai/toudai/enganntoudai/shirakamitoudai.htm","opening_hours":null,"capacity":null,"phone":null,"address":"049-1524 松前町","osmType":"node","osmId":1924825185}},{"type":"Feature","geometry":{"type":"Point","coordinates":[140.24129,41.44527]},"properties":{"name":"吉岡港灯台","country":"Japan","website":null,"opening_hours":null,"capacity":null,"phone":null,"address":"049-1453 福島町","osmType":"node","osmId":1927133935}},{"type":"Feature","geometry":{"type":"Point","coordinates":[142.0712,39.54669]},"properties":{"name":"魹ヶ崎灯台","country":"Japan","website":null,"opening_hours":null,"capacity":null,"phone":null,"address":null,"osmType":"node","osmId":1930761501}},{"type":"Feature","geometry":{"type":"Point","coordinates":[136.14369,35.42014]},"properties":{"name":null,"country":"Japan","website":null,"opening_hours":null,"capacity":null,"phone":null,"address":null,"osmType":"node","osmId":1939580027}},{"type":"Feature","geometry":{"type":"Point","coordinates":[136.14361,35.42019]},"properties":{"name":null,"country":"Japan","website":null,"opening_hours":null,"capacity":null,"phone":null,"address":null,"osmType":"node","osmId":1939580045}},{"type":"Feature","geometry":{"type":"Point","coordinates":[139.88839,34.90173]},"properties":{"name":null,"country":"Japan","website":null,"opening_hours":null,"capacity":null,"phone":null,"address":null,"osmType":"node","osmId":2018996890}},{"type":"Feature","geometry":{"type":"Point","coordinates":[136.98951,35.34607]},"properties":{"name":"小那沙美島燈台","country":"Japan","website":null,"opening_hours":null,"capacity":null,"phone":null,"address":null,"osmType":"node","osmId":2119125807}},{"type":"Feature","geometry":{"type":"Point","coordinates":[145.1678,43.0773]},"properties":{"name":"湯沸岬灯台","country":"Japan","website":null,"opening_hours":null,"capacity":null,"phone":null,"address":null,"osmType":"node","osmId":2140167781}},{"type":"Feature","geometry":{"type":"Point","coordinates":[130.96304,33.96213]},"properties":{"name":"門司埼灯台","country":"Japan","website":null,"opening_hours":null,"capacity":null,"phone":null,"address":null,"osmType":"node","osmId":2142757764}},{"type":"Feature","geometry":{"type":"Point","coordinates":[139.17274,35.03851]},"properties":{"name":"初島灯台","country":"Japan","website":null,"opening_hours":null,"capacity":null,"phone":null,"address":null,"osmType":"node","osmId":2179826643}},{"type":"Feature","geometry":{"type":"Point","coordinates":[130.33656,33.643]},"properties":{"name":null,"country":"Japan","website":null,"opening_hours":null,"capacity":null,"phone":null,"address":null,"osmType":"node","osmId":2342747618}},{"type":"Feature","geometry":{"type":"Point","coordinates":[130.38192,33.61807]},"properties":{"name":null,"country":"Japan","website":null,"opening_hours":null,"capacity":null,"phone":null,"address":null,"osmType":"node","osmId":2342748843}},{"type":"Feature","geometry":{"type":"Point","coordinates":[141.53327,40.53633]},"properties":{"name":"八戸港河原木南防波堤東灯台","country":"Japan","website":null,"opening_hours":null,"capacity":null,"phone":null,"address":null,"osmType":"node","osmId":2481695253}},{"type":"Feature","geometry":{"type":"Point","coordinates":[141.528,40.55873]},"properties":{"name":"八戸港八太郎北防波堤灯台","country":"Japan","website":null,"opening_hours":null,"capacity":null,"phone":null,"address":null,"osmType":"node","osmId":2481695278}},{"type":"Feature","geometry":{"type":"Point","coordinates":[135.07382,33.94804]},"properties":{"name":null,"country":"Japan","website":null,"opening_hours":null,"capacity":null,"phone":null,"address":null,"osmType":"node","osmId":2509092963}},{"type":"Feature","geometry":{"type":"Point","coordinates":[141.00119,42.30214]},"properties":{"name":"チキウ岬灯台","country":"Japan","website":null,"opening_hours":null,"capacity":null,"phone":null,"address":null,"osmType":"node","osmId":2519600553}},{"type":"Feature","geometry":{"type":"Point","coordinates":[134.74944,33.83417]},"properties":{"name":"蒲生田岬灯台","country":"Japan","website":null,"opening_hours":null,"capacity":null,"phone":null,"address":null,"osmType":"node","osmId":2677477799}},{"type":"Feature","geometry":{"type":"Point","coordinates":[128.66448,32.78431]},"properties":{"name":"柏崎灯台","country":"Japan","website":null,"opening_hours":null,"capacity":null,"phone":null,"address":null,"osmType":"node","osmId":2706658380}},{"type":"Feature","geometry":{"type":"Point","coordinates":[136.61273,35.35619]},"properties":{"name":"住吉灯台","country":"Japan","website":null,"opening_hours":null,"capacity":null,"phone":null,"address":null,"osmType":"node","osmId":2784877005}},{"type":"Feature","geometry":{"type":"Point","coordinates":[132.36001,34.25115]},"properties":{"name":"俎石灯標","country":"Japan","website":null,"opening_hours":null,"capacity":null,"phone":null,"address":null,"osmType":"node","osmId":2787766711}},{"type":"Feature","geometry":{"type":"Point","coordinates":[132.37434,34.27075]},"properties":{"name":null,"country":"Japan","website":null,"opening_hours":null,"capacity":null,"phone":null,"address":null,"osmType":"node","osmId":2787766724}},{"type":"Feature","geometry":{"type":"Point","coordinates":[132.405,34.27639]},"properties":{"name":null,"country":"Japan","website":null,"opening_hours":null,"capacity":null,"phone":null,"address":null,"osmType":"node","osmId":2787766729}},{"type":"Feature","geometry":{"type":"Point","coordinates":[132.36185,34.29088]},"properties":{"name":null,"country":"Japan","website":null,"opening_hours":null,"capacity":null,"phone":null,"address":null,"osmType":"node","osmId":2787766733}},{"type":"Feature","geometry":{"type":"Point","coordinates":[132.45372,34.34439]},"properties":{"name":null,"country":"Japan","website":null,"opening_hours":null,"capacity":null,"phone":null,"address":null,"osmType":"node","osmId":2787766764}},{"type":"Feature","geometry":{"type":"Point","coordinates":[132.45609,34.34534]},"properties":{"name":null,"country":"Japan","website":null,"opening_hours":null,"capacity":null,"phone":null,"address":null,"osmType":"node","osmId":2787766766}},{"type":"Feature","geometry":{"type":"Point","coordinates":[132.5392,34.06996]},"properties":{"name":null,"country":"Japan","website":null,"opening_hours":null,"capacity":null,"phone":null,"address":null,"osmType":"node","osmId":2819874597}},{"type":"Feature","geometry":{"type":"Point","coordinates":[132.49407,34.14887]},"properties":{"name":null,"country":"Japan","website":null,"opening_hours":null,"capacity":null,"phone":null,"address":null,"osmType":"node","osmId":2819877826}},{"type":"Feature","geometry":{"type":"Point","coordinates":[132.80034,34.17537]},"properties":{"name":null,"country":"Japan","website":null,"opening_hours":null,"capacity":null,"phone":null,"address":null,"osmType":"node","osmId":2819877848}},{"type":"Feature","geometry":{"type":"Point","coordinates":[132.48203,34.17677]},"properties":{"name":null,"country":"Japan","website":null,"opening_hours":null,"capacity":null,"phone":null,"address":null,"osmType":"node","osmId":2819877853}},{"type":"Feature","geometry":{"type":"Point","coordinates":[132.86928,34.17708]},"properties":{"name":null,"country":"Japan","website":null,"opening_hours":null,"capacity":null,"phone":null,"address":null,"osmType":"node","osmId":2819877855}},{"type":"Feature","geometry":{"type":"Point","coordinates":[132.86184,34.18259]},"properties":{"name":null,"country":"Japan","website":null,"opening_hours":null,"capacity":null,"phone":null,"address":null,"osmType":"node","osmId":2819877872}},{"type":"Feature","geometry":{"type":"Point","coordinates":[132.82946,34.18709]},"properties":{"name":null,"country":"Japan","website":null,"opening_hours":null,"capacity":null,"phone":null,"address":null,"osmType":"node","osmId":2819877881}},{"type":"Feature","geometry":{"type":"Point","coordinates":[132.91811,34.18886]},"properties":{"name":"大下島灯台","country":"Japan","website":"https://www.kaiho.mlit.go.jp/06kanku/imabari/","opening_hours":null,"capacity":null,"phone":null,"address":null,"osmType":"node","osmId":2819877888}},{"type":"Feature","geometry":{"type":"Point","coordinates":[132.73625,34.19732]},"properties":{"name":null,"country":"Japan","website":null,"opening_hours":null,"capacity":null,"phone":null,"address":null,"osmType":"node","osmId":2819878107}},{"type":"Feature","geometry":{"type":"Point","coordinates":[132.53676,34.19925]},"properties":{"name":null,"country":"Japan","website":null,"opening_hours":null,"capacity":null,"phone":null,"address":null,"osmType":"node","osmId":2819878110}},{"type":"Feature","geometry":{"type":"Point","coordinates":[132.40876,34.202]},"properties":{"name":null,"country":"Japan","website":null,"opening_hours":null,"capacity":null,"phone":null,"address":null,"osmType":"node","osmId":2819878114}},{"type":"Feature","geometry":{"type":"Point","coordinates":[132.39487,34.21522]},"properties":{"name":null,"country":"Japan","website":null,"opening_hours":null,"capacity":null,"phone":null,"address":null,"osmType":"node","osmId":2819878132}},{"type":"Feature","geometry":{"type":"Point","coordinates":[132.38137,34.25784]},"properties":{"name":null,"country":"Japan","website":null,"opening_hours":null,"capacity":null,"phone":null,"address":null,"osmType":"node","osmId":2819878528}},{"type":"Feature","geometry":{"type":"Point","coordinates":[132.4073,34.26083]},"properties":{"name":null,"country":"Japan","website":null,"opening_hours":null,"capacity":null,"phone":null,"address":null,"osmType":"node","osmId":2819878533}},{"type":"Feature","geometry":{"type":"Point","coordinates":[132.91599,34.27347]},"properties":{"name":null,"country":"Japan","website":null,"opening_hours":null,"capacity":null,"phone":null,"address":null,"osmType":"node","osmId":2819878543}},{"type":"Feature","geometry":{"type":"Point","coordinates":[132.47416,34.28555]},"properties":{"name":null,"country":"Japan","website":null,"opening_hours":null,"capacity":null,"phone":null,"address":null,"osmType":"node","osmId":2819878572}},{"type":"Feature","geometry":{"type":"Point","coordinates":[132.4791,34.29835]},"properties":{"name":null,"country":"Japan","website":null,"opening_hours":null,"capacity":null,"phone":null,"address":null,"osmType":"node","osmId":2819878580}},{"type":"Feature","geometry":{"type":"Point","coordinates":[143.24399,41.92582]},"properties":{"name":"襟裳岬灯台","country":"Japan","website":null,"opening_hours":null,"capacity":null,"phone":null,"address":null,"osmType":"node","osmId":2838775501}},{"type":"Feature","geometry":{"type":"Point","coordinates":[129.84642,33.55548]},"properties":{"name":"波戸岬灯台","country":"Japan","website":null,"opening_hours":null,"capacity":null,"phone":null,"address":null,"osmType":"node","osmId":2910212503}},{"type":"Feature","geometry":{"type":"Point","coordinates":[130.5874,31.15689]},"properties":{"name":"薩摩長崎鼻灯台","country":"Japan","website":null,"opening_hours":null,"capacity":null,"phone":null,"address":null,"osmType":"node","osmId":2915436102}},{"type":"Feature","geometry":{"type":"Point","coordinates":[145.87643,44.02089]},"properties":{"name":"Маяк Южно-Курильский (недейств.)","country":"Japan","website":null,"opening_hours":null,"capacity":null,"phone":null,"address":null,"osmType":"node","osmId":2932822529}},{"type":"Feature","geometry":{"type":"Point","coordinates":[140.48142,43.37319]},"properties":{"name":"積丹出岬灯台","country":"Japan","website":null,"opening_hours":null,"capacity":null,"phone":null,"address":null,"osmType":"node","osmId":2993887305}},{"type":"Feature","geometry":{"type":"Point","coordinates":[140.34754,43.33323]},"properties":{"name":"神威岬灯台","country":"Japan","website":null,"opening_hours":null,"capacity":null,"phone":null,"address":null,"osmType":"node","osmId":2993976681}},{"type":"Feature","geometry":{"type":"Point","coordinates":[134.83943,35.65026]},"properties":{"name":null,"country":"Japan","website":null,"opening_hours":null,"capacity":null,"phone":null,"address":null,"osmType":"node","osmId":3026541871}},{"type":"Feature","geometry":{"type":"Point","coordinates":[134.83836,35.65139]},"properties":{"name":null,"country":"Japan","website":null,"opening_hours":null,"capacity":null,"phone":null,"address":null,"osmType":"node","osmId":3026541877}},{"type":"Feature","geometry":{"type":"Point","coordinates":[141.64518,45.4495]},"properties":{"name":"稚内灯台","country":"Japan","website":null,"opening_hours":null,"capacity":null,"phone":null,"address":null,"osmType":"node","osmId":3027286449}},{"type":"Feature","geometry":{"type":"Point","coordinates":[135.05585,34.62325]},"properties":{"name":null,"country":"Japan","website":null,"opening_hours":null,"capacity":null,"phone":null,"address":null,"osmType":"node","osmId":3043538055}},{"type":"Feature","geometry":{"type":"Point","coordinates":[134.98345,34.64013]},"properties":{"name":"明石港西外港沖防波堤東灯台","country":"Japan","website":null,"opening_hours":null,"capacity":null,"phone":null,"address":null,"osmType":"node","osmId":3043538073}},{"type":"Feature","geometry":{"type":"Point","coordinates":[134.98284,34.64061]},"properties":{"name":"明石港西外港西防波堤灯台","country":"Japan","website":null,"opening_hours":null,"capacity":null,"phone":null,"address":null,"osmType":"node","osmId":3043538082}},{"type":"Feature","geometry":{"type":"Point","coordinates":[134.9905,34.64125]},"properties":{"name":"明石港東外港西防波堤灯台","country":"Japan","website":null,"opening_hours":null,"capacity":null,"phone":null,"address":null,"osmType":"node","osmId":3043538101}},{"type":"Feature","geometry":{"type":"Point","coordinates":[134.99134,34.64165]},"properties":{"name":"明石港東外港南防波堤灯台","country":"Japan","website":null,"opening_hours":null,"capacity":null,"phone":null,"address":null,"osmType":"node","osmId":3043538131}},{"type":"Feature","geometry":{"type":"Point","coordinates":[134.91013,34.67413]},"properties":{"name":null,"country":"Japan","website":null,"opening_hours":null,"capacity":null,"phone":null,"address":null,"osmType":"node","osmId":3043538669}},{"type":"Feature","geometry":{"type":"Point","coordinates":[134.8367,34.69704]},"properties":{"name":null,"country":"Japan","website":null,"opening_hours":null,"capacity":null,"phone":null,"address":null,"osmType":"node","osmId":3043538724}},{"type":"Feature","geometry":{"type":"Point","coordinates":[134.83165,34.69822]},"properties":{"name":null,"country":"Japan","website":null,"opening_hours":null,"capacity":null,"phone":null,"address":null,"osmType":"node","osmId":3043538729}},{"type":"Feature","geometry":{"type":"Point","coordinates":[134.79728,34.72987]},"properties":{"name":null,"country":"Japan","website":null,"opening_hours":null,"capacity":null,"phone":null,"address":null,"osmType":"node","osmId":3043538834}},{"type":"Feature","geometry":{"type":"Point","coordinates":[134.79831,34.73032]},"properties":{"name":null,"country":"Japan","website":null,"opening_hours":null,"capacity":null,"phone":null,"address":null,"osmType":"node","osmId":3043538839}},{"type":"Feature","geometry":{"type":"Point","coordinates":[134.78543,34.74059]},"properties":{"name":null,"country":"Japan","website":null,"opening_hours":null,"capacity":null,"phone":null,"address":null,"osmType":"node","osmId":3043538882}},{"type":"Feature","geometry":{"type":"Point","coordinates":[134.64946,34.7618]},"properties":{"name":null,"country":"Japan","website":null,"opening_hours":null,"capacity":null,"phone":null,"address":null,"osmType":"node","osmId":3043538894}},{"type":"Feature","geometry":{"type":"Point","coordinates":[134.65281,34.76325]},"properties":{"name":null,"country":"Japan","website":null,"opening_hours":null,"capacity":null,"phone":null,"address":null,"osmType":"node","osmId":3043538897}},{"type":"Feature","geometry":{"type":"Point","coordinates":[134.65795,34.77397]},"properties":{"name":null,"country":"Japan","website":null,"opening_hours":null,"capacity":null,"phone":null,"address":null,"osmType":"node","osmId":3043538910}},{"type":"Feature","geometry":{"type":"Point","coordinates":[134.34839,34.54419]},"properties":{"name":null,"country":"Japan","website":null,"opening_hours":null,"capacity":null,"phone":null,"address":null,"osmType":"node","osmId":3043588068}},{"type":"Feature","geometry":{"type":"Point","coordinates":[134.62888,34.76386]},"properties":{"name":null,"country":"Japan","website":null,"opening_hours":null,"capacity":null,"phone":null,"address":null,"osmType":"node","osmId":3048247306}},{"type":"Feature","geometry":{"type":"Point","coordinates":[134.72236,34.77098]},"properties":{"name":null,"country":"Japan","website":null,"opening_hours":null,"capacity":null,"phone":null,"address":null,"osmType":"node","osmId":3048247322}},{"type":"Feature","geometry":{"type":"Point","coordinates":[134.52756,34.78088]},"properties":{"name":null,"country":"Japan","website":null,"opening_hours":null,"capacity":null,"phone":null,"address":null,"osmType":"node","osmId":3050509392}},{"type":"Feature","geometry":{"type":"Point","coordinates":[133.00591,34.07442]},"properties":{"name":null,"country":"Japan","website":null,"opening_hours":null,"capacity":null,"phone":null,"address":null,"osmType":"node","osmId":3051342595}},{"type":"Feature","geometry":{"type":"Point","coordinates":[132.9911,34.11252]},"properties":{"name":"ウズ鼻灯台","country":"Japan","website":"https://www.kaiho.mlit.go.jp/06kanku/imabari/","opening_hours":null,"capacity":null,"phone":null,"address":null,"osmType":"node","osmId":3051342596}},{"type":"Feature","geometry":{"type":"Point","coordinates":[133.27583,34.30078]},"properties":{"name":null,"country":"Japan","website":null,"opening_hours":null,"capacity":null,"phone":null,"address":null,"osmType":"node","osmId":3051342601}},{"type":"Feature","geometry":{"type":"Point","coordinates":[133.66318,34.32545]},"properties":{"name":null,"country":"Japan","website":null,"opening_hours":null,"capacity":null,"phone":null,"address":null,"osmType":"node","osmId":3051342602}},{"type":"Feature","geometry":{"type":"Point","coordinates":[133.85182,34.37383]},"properties":{"name":null,"country":"Japan","website":null,"opening_hours":null,"capacity":null,"phone":null,"address":null,"osmType":"node","osmId":3051342603}},{"type":"Feature","geometry":{"type":"Point","coordinates":[133.82369,34.38238]},"properties":{"name":null,"country":"Japan","website":null,"opening_hours":null,"capacity":null,"phone":null,"address":null,"osmType":"node","osmId":3051342604}},{"type":"Feature","geometry":{"type":"Point","coordinates":[133.82423,34.38346]},"properties":{"name":null,"country":"Japan","website":null,"opening_hours":null,"capacity":null,"phone":null,"address":null,"osmType":"node","osmId":3051342606}},{"type":"Feature","geometry":{"type":"Point","coordinates":[134.23585,34.41546]},"properties":{"name":null,"country":"Japan","website":null,"opening_hours":null,"capacity":null,"phone":null,"address":null,"osmType":"node","osmId":3051342607}},{"type":"Feature","geometry":{"type":"Point","coordinates":[134.02137,34.47973]},"properties":{"name":null,"country":"Japan","website":null,"opening_hours":null,"capacity":null,"phone":null,"address":null,"osmType":"node","osmId":3051342609}},{"type":"Feature","geometry":{"type":"Point","coordinates":[134.05962,34.48977]},"properties":{"name":null,"country":"Japan","website":null,"opening_hours":null,"capacity":null,"phone":null,"address":null,"osmType":"node","osmId":3051342611}},{"type":"Feature","geometry":{"type":"Point","coordinates":[134.09718,34.49089]},"properties":{"name":null,"country":"Japan","website":null,"opening_hours":null,"capacity":null,"phone":null,"address":null,"osmType":"node","osmId":3051342612}},{"type":"Feature","geometry":{"type":"Point","coordinates":[134.28308,34.54787]},"properties":{"name":null,"country":"Japan","website":null,"opening_hours":null,"capacity":null,"phone":null,"address":null,"osmType":"node","osmId":3051342613}},{"type":"Feature","geometry":{"type":"Point","coordinates":[134.34213,34.70383]},"properties":{"name":null,"country":"Japan","website":null,"opening_hours":null,"capacity":null,"phone":null,"address":null,"osmType":"node","osmId":3051342614}},{"type":"Feature","geometry":{"type":"Point","coordinates":[134.40907,34.72996]},"properties":{"name":null,"country":"Japan","website":null,"opening_hours":null,"capacity":null,"phone":null,"address":null,"osmType":"node","osmId":3051342615}},{"type":"Feature","geometry":{"type":"Point","coordinates":[135.01809,34.59201]},"properties":{"name":null,"country":"Japan","website":null,"opening_hours":null,"capacity":null,"phone":null,"address":null,"osmType":"node","osmId":3051448566}},{"type":"Feature","geometry":{"type":"Point","coordinates":[135.01865,34.59245]},"properties":{"name":null,"country":"Japan","website":null,"opening_hours":null,"capacity":null,"phone":null,"address":null,"osmType":"node","osmId":3051448567}},{"type":"Feature","geometry":{"type":"Point","coordinates":[135.0125,34.59816]},"properties":{"name":null,"country":"Japan","website":null,"opening_hours":null,"capacity":null,"phone":null,"address":null,"osmType":"node","osmId":3051448576}},{"type":"Feature","geometry":{"type":"Point","coordinates":[135.13699,34.64008]},"properties":{"name":null,"country":"Japan","website":null,"opening_hours":null,"capacity":null,"phone":null,"address":null,"osmType":"node","osmId":3051448613}},{"type":"Feature","geometry":{"type":"Point","coordinates":[135.15648,34.64637]},"properties":{"name":null,"country":"Japan","website":null,"opening_hours":null,"capacity":null,"phone":null,"address":null,"osmType":"node","osmId":3051448776}},{"type":"Feature","geometry":{"type":"Point","coordinates":[135.1903,34.65296]},"properties":{"name":null,"country":"Japan","website":null,"opening_hours":null,"capacity":null,"phone":null,"address":null,"osmType":"node","osmId":3051448804}},{"type":"Feature","geometry":{"type":"Point","coordinates":[135.20238,34.65436]},"properties":{"name":null,"country":"Japan","website":null,"opening_hours":null,"capacity":null,"phone":null,"address":null,"osmType":"node","osmId":3051448806}},{"type":"Feature","geometry":{"type":"Point","coordinates":[135.22291,34.68151]},"properties":{"name":null,"country":"Japan","website":null,"opening_hours":null,"capacity":null,"phone":null,"address":null,"osmType":"node","osmId":3051448818}},{"type":"Feature","geometry":{"type":"Point","coordinates":[135.22424,34.68919]},"properties":{"name":null,"country":"Japan","website":null,"opening_hours":null,"capacity":null,"phone":null,"address":null,"osmType":"node","osmId":3051448821}},{"type":"Feature","geometry":{"type":"Point","coordinates":[134.80601,34.71319]},"properties":{"name":null,"country":"Japan","website":null,"opening_hours":null,"capacity":null,"phone":null,"address":null,"osmType":"node","osmId":3059008336}},{"type":"Feature","geometry":{"type":"Point","coordinates":[134.47694,34.59372]},"properties":{"name":"松島灯台","country":"Japan","website":null,"opening_hours":null,"capacity":null,"phone":null,"address":null,"osmType":"node","osmId":3066739386}},{"type":"Feature","geometry":{"type":"Point","coordinates":[134.51976,34.64916]},"properties":{"name":null,"country":"Japan","website":null,"opening_hours":null,"capacity":null,"phone":null,"address":null,"osmType":"node","osmId":3066751799}},{"type":"Feature","geometry":{"type":"Point","coordinates":[134.50888,34.65331]},"properties":{"name":null,"country":"Japan","website":null,"opening_hours":null,"capacity":null,"phone":null,"address":null,"osmType":"node","osmId":3066752357}},{"type":"Feature","geometry":{"type":"Point","coordinates":[134.51127,34.65407]},"properties":{"name":null,"country":"Japan","website":null,"opening_hours":null,"capacity":null,"phone":null,"address":null,"osmType":"node","osmId":3066752375}},{"type":"Feature","geometry":{"type":"Point","coordinates":[134.51762,34.65858]},"properties":{"name":null,"country":"Japan","website":null,"opening_hours":null,"capacity":null,"phone":null,"address":null,"osmType":"node","osmId":3066752616}},{"type":"Feature","geometry":{"type":"Point","coordinates":[134.53575,34.67942]},"properties":{"name":null,"country":"Japan","website":null,"opening_hours":null,"capacity":null,"phone":null,"address":null,"osmType":"node","osmId":3066754588}},{"type":"Feature","geometry":{"type":"Point","coordinates":[134.53405,34.67991]},"properties":{"name":null,"country":"Japan","website":null,"opening_hours":null,"capacity":null,"phone":null,"address":null,"osmType":"node","osmId":3066754608}},{"type":"Feature","geometry":{"type":"Point","coordinates":[134.53589,34.68483]},"properties":{"name":"尾崎鼻灯台","country":"Japan","website":null,"opening_hours":null,"capacity":null,"phone":null,"address":null,"osmType":"node","osmId":3066754783}},{"type":"Feature","geometry":{"type":"Point","coordinates":[134.6374,34.68656]},"properties":{"name":"鞍掛島灯台","country":"Japan","website":null,"opening_hours":null,"capacity":null,"phone":null,"address":null,"osmType":"node","osmId":3066754791}},{"type":"Feature","geometry":{"type":"Point","coordinates":[134.71428,34.68698]},"properties":{"name":"上島灯台","country":"Japan","website":null,"opening_hours":null,"capacity":null,"phone":null,"address":null,"osmType":"node","osmId":3066754792}},{"type":"Feature","geometry":{"type":"Point","coordinates":[134.40697,34.7227]},"properties":{"name":null,"country":"Japan","website":null,"opening_hours":null,"capacity":null,"phone":null,"address":null,"osmType":"node","osmId":3069717851}},{"type":"Feature","geometry":{"type":"Point","coordinates":[134.46385,34.74763]},"properties":{"name":null,"country":"Japan","website":null,"opening_hours":null,"capacity":null,"phone":null,"address":null,"osmType":"node","osmId":3069717852}},{"type":"Feature","geometry":{"type":"Point","coordinates":[129.29963,34.1911]},"properties":{"name":null,"country":"Japan","website":null,"opening_hours":null,"capacity":null,"phone":null,"address":null,"osmType":"node","osmId":3072091689}},{"type":"Feature","geometry":{"type":"Point","coordinates":[129.29207,34.19517]},"properties":{"name":null,"country":"Japan","website":null,"opening_hours":null,"capacity":null,"phone":null,"address":null,"osmType":"node","osmId":3072091707}},{"type":"Feature","geometry":{"type":"Point","coordinates":[129.29841,34.19432]},"properties":{"name":null,"country":"Japan","website":null,"opening_hours":null,"capacity":null,"phone":null,"address":null,"osmType":"node","osmId":3072106798}},{"type":"Feature","geometry":{"type":"Point","coordinates":[129.6773,33.73995]},"properties":{"name":null,"country":"Japan","website":null,"opening_hours":null,"capacity":null,"phone":null,"address":null,"osmType":"node","osmId":3072745863}},{"type":"Feature","geometry":{"type":"Point","coordinates":[129.68325,33.74245]},"properties":{"name":null,"country":"Japan","website":null,"opening_hours":null,"capacity":null,"phone":null,"address":null,"osmType":"node","osmId":3072745869}},{"type":"Feature","geometry":{"type":"Point","coordinates":[129.76204,33.80395]},"properties":{"name":null,"country":"Japan","website":null,"opening_hours":null,"capacity":null,"phone":null,"address":null,"osmType":"node","osmId":3072746892}},{"type":"Feature","geometry":{"type":"Point","coordinates":[129.76005,33.80646]},"properties":{"name":null,"country":"Japan","website":null,"opening_hours":null,"capacity":null,"phone":null,"address":null,"osmType":"node","osmId":3072746902}},{"type":"Feature","geometry":{"type":"Point","coordinates":[129.76557,33.80748]},"properties":{"name":null,"country":"Japan","website":null,"opening_hours":null,"capacity":null,"phone":null,"address":null,"osmType":"node","osmId":3072746906}},{"type":"Feature","geometry":{"type":"Point","coordinates":[129.75932,33.80826]},"properties":{"name":null,"country":"Japan","website":null,"opening_hours":null,"capacity":null,"phone":null,"address":null,"osmType":"node","osmId":3072746907}},{"type":"Feature","geometry":{"type":"Point","coordinates":[130.66288,30.31686]},"properties":{"name":null,"country":"Japan","website":null,"opening_hours":null,"capacity":null,"phone":null,"address":null,"osmType":"node","osmId":3073674022}},{"type":"Feature","geometry":{"type":"Point","coordinates":[130.49042,30.45686]},"properties":{"name":null,"country":"Japan","website":null,"opening_hours":null,"capacity":null,"phone":null,"address":null,"osmType":"node","osmId":3073675846}},{"type":"Feature","geometry":{"type":"Point","coordinates":[130.96394,30.46192]},"properties":{"name":null,"country":"Japan","website":null,"opening_hours":null,"capacity":null,"phone":null,"address":null,"osmType":"node","osmId":3073675847}},{"type":"Feature","geometry":{"type":"Point","coordinates":[130.49782,30.46869]},"properties":{"name":null,"country":"Japan","website":null,"opening_hours":null,"capacity":null,"phone":null,"address":null,"osmType":"node","osmId":3073675890}},{"type":"Feature","geometry":{"type":"Point","coordinates":[130.86549,30.46987]},"properties":{"name":null,"country":"Japan","website":null,"opening_hours":null,"capacity":null,"phone":null,"address":null,"osmType":"node","osmId":3073675892}},{"type":"Feature","geometry":{"type":"Point","coordinates":[130.98767,30.73008]},"properties":{"name":null,"country":"Japan","website":null,"opening_hours":null,"capacity":null,"phone":null,"address":null,"osmType":"node","osmId":3073675939}},{"type":"Feature","geometry":{"type":"Point","coordinates":[130.98255,30.73148]},"properties":{"name":null,"country":"Japan","website":null,"opening_hours":null,"capacity":null,"phone":null,"address":null,"osmType":"node","osmId":3073675948}},{"type":"Feature","geometry":{"type":"Point","coordinates":[130.99064,30.73466]},"properties":{"name":null,"country":"Japan","website":null,"opening_hours":null,"capacity":null,"phone":null,"address":null,"osmType":"node","osmId":3073675953}},{"type":"Feature","geometry":{"type":"Point","coordinates":[130.98855,30.73574]},"properties":{"name":null,"country":"Japan","website":null,"opening_hours":null,"capacity":null,"phone":null,"address":null,"osmType":"node","osmId":3073675961}},{"type":"Feature","geometry":{"type":"Point","coordinates":[130.98244,30.74362]},"properties":{"name":null,"country":"Japan","website":null,"opening_hours":null,"capacity":null,"phone":null,"address":null,"osmType":"node","osmId":3073675976}},{"type":"Feature","geometry":{"type":"Point","coordinates":[131.09122,31.44866]},"properties":{"name":null,"country":"Japan","website":null,"opening_hours":null,"capacity":null,"phone":null,"address":null,"osmType":"node","osmId":3074325936}},{"type":"Feature","geometry":{"type":"Point","coordinates":[131.10903,31.4737]},"properties":{"name":null,"country":"Japan","website":null,"opening_hours":null,"capacity":null,"phone":null,"address":null,"osmType":"node","osmId":3074325979}},{"type":"Feature","geometry":{"type":"Point","coordinates":[131.39812,31.50694]},"properties":{"name":null,"country":"Japan","website":null,"opening_hours":null,"capacity":null,"phone":null,"address":null,"osmType":"node","osmId":3074325982}},{"type":"Feature","geometry":{"type":"Point","coordinates":[131.3784,31.51268]},"properties":{"name":null,"country":"Japan","website":null,"opening_hours":null,"capacity":null,"phone":null,"address":null,"osmType":"node","osmId":3074326001}},{"type":"Feature","geometry":{"type":"Point","coordinates":[131.41595,31.51408]},"properties":{"name":null,"country":"Japan","website":null,"opening_hours":null,"capacity":null,"phone":null,"address":null,"osmType":"node","osmId":3074326005}},{"type":"Feature","geometry":{"type":"Point","coordinates":[131.38846,31.55636]},"properties":{"name":null,"country":"Japan","website":null,"opening_hours":null,"capacity":null,"phone":null,"address":null,"osmType":"node","osmId":3074327033}},{"type":"Feature","geometry":{"type":"Point","coordinates":[131.38736,31.55674]},"properties":{"name":null,"country":"Japan","website":null,"opening_hours":null,"capacity":null,"phone":null,"address":null,"osmType":"node","osmId":3074327039}},{"type":"Feature","geometry":{"type":"Point","coordinates":[131.38814,31.55711]},"properties":{"name":null,"country":"Japan","website":null,"opening_hours":null,"capacity":null,"phone":null,"address":null,"osmType":"node","osmId":3074327041}},{"type":"Feature","geometry":{"type":"Point","coordinates":[131.40343,31.57098]},"properties":{"name":null,"country":"Japan","website":null,"opening_hours":null,"capacity":null,"phone":null,"address":null,"osmType":"node","osmId":3074327051}},{"type":"Feature","geometry":{"type":"Point","coordinates":[131.4022,31.57147]},"properties":{"name":null,"country":"Japan","website":null,"opening_hours":null,"capacity":null,"phone":null,"address":null,"osmType":"node","osmId":3074327052}},{"type":"Feature","geometry":{"type":"Point","coordinates":[131.40244,31.57506]},"properties":{"name":null,"country":"Japan","website":null,"opening_hours":null,"capacity":null,"phone":null,"address":null,"osmType":"node","osmId":3074327054}},{"type":"Feature","geometry":{"type":"Point","coordinates":[131.40468,31.57867]},"properties":{"name":null,"country":"Japan","website":null,"opening_hours":null,"capacity":null,"phone":null,"address":null,"osmType":"node","osmId":3074327069}},{"type":"Feature","geometry":{"type":"Point","coordinates":[131.01317,33.79703]},"properties":{"name":null,"country":"Japan","website":null,"opening_hours":null,"capacity":null,"phone":null,"address":null,"osmType":"node","osmId":3074371420}},{"type":"Feature","geometry":{"type":"Point","coordinates":[131.01249,33.79996]},"properties":{"name":null,"country":"Japan","website":null,"opening_hours":null,"capacity":null,"phone":null,"address":null,"osmType":"node","osmId":3074371424}},{"type":"Feature","geometry":{"type":"Point","coordinates":[131.01018,33.87302]},"properties":{"name":null,"country":"Japan","website":null,"opening_hours":null,"capacity":null,"phone":null,"address":null,"osmType":"node","osmId":3074371583}},{"type":"Feature","geometry":{"type":"Point","coordinates":[132.47402,33.95368]},"properties":{"name":null,"country":"Japan","website":null,"opening_hours":null,"capacity":null,"phone":null,"address":null,"osmType":"node","osmId":3074371593}},{"type":"Feature","geometry":{"type":"Point","coordinates":[132.56405,33.96914]},"properties":{"name":"クダコ島","country":"Japan","website":null,"opening_hours":null,"capacity":null,"phone":null,"address":null,"osmType":"node","osmId":3074371595}},{"type":"Feature","geometry":{"type":"Point","coordinates":[135.06514,34.62144]},"properties":{"name":"平磯灯標","country":"Japan","website":null,"opening_hours":null,"capacity":null,"phone":null,"address":null,"osmType":"node","osmId":3078028828}},{"type":"Feature","geometry":{"type":"Point","coordinates":[134.70861,34.24836]},"properties":{"name":null,"country":"Japan","website":null,"opening_hours":null,"capacity":null,"phone":null,"address":null,"osmType":"node","osmId":3078281708}},{"type":"Feature","geometry":{"type":"Point","coordinates":[134.65786,34.29168]},"properties":{"name":null,"country":"Japan","website":null,"opening_hours":null,"capacity":null,"phone":null,"address":null,"osmType":"node","osmId":3078281725}},{"type":"Feature","geometry":{"type":"Point","coordinates":[134.72528,34.33268]},"properties":{"name":null,"country":"Japan","website":null,"opening_hours":null,"capacity":null,"phone":null,"address":null,"osmType":"node","osmId":3078304383}},{"type":"Feature","geometry":{"type":"Point","coordinates":[134.72414,34.33329]},"properties":{"name":null,"country":"Japan","website":null,"opening_hours":null,"capacity":null,"phone":null,"address":null,"osmType":"node","osmId":3078304390}},{"type":"Feature","geometry":{"type":"Point","coordinates":[134.77726,34.41886]},"properties":{"name":null,"country":"Japan","website":null,"opening_hours":null,"capacity":null,"phone":null,"address":null,"osmType":"node","osmId":3078304398}},{"type":"Feature","geometry":{"type":"Point","coordinates":[134.29762,34.68638]},"properties":{"name":"大多府港一文字防波堤西灯台","country":"Japan","website":null,"opening_hours":null,"capacity":null,"phone":null,"address":null,"osmType":"node","osmId":3079530994}},{"type":"Feature","geometry":{"type":"Point","coordinates":[134.88649,34.69214]},"properties":{"name":null,"country":"Japan","website":null,"opening_hours":null,"capacity":null,"phone":null,"address":null,"osmType":"node","osmId":3080012425}},{"type":"Feature","geometry":{"type":"Point","coordinates":[134.98849,34.64131]},"properties":{"name":"明石港中外港南防波堤灯台","country":"Japan","website":null,"opening_hours":null,"capacity":null,"phone":null,"address":null,"osmType":"node","osmId":3080012427}},{"type":"Feature","geometry":{"type":"Point","coordinates":[134.62782,35.64638]},"properties":{"name":null,"country":"Japan","website":null,"opening_hours":null,"capacity":null,"phone":null,"address":null,"osmType":"node","osmId":3081643341}},{"type":"Feature","geometry":{"type":"Point","coordinates":[134.62637,35.64681]},"properties":{"name":null,"country":"Japan","website":null,"opening_hours":null,"capacity":null,"phone":null,"address":null,"osmType":"node","osmId":3081643347}},{"type":"Feature","geometry":{"type":"Point","coordinates":[134.63583,35.64945]},"properties":{"name":null,"country":"Japan","website":null,"opening_hours":null,"capacity":null,"phone":null,"address":null,"osmType":"node","osmId":3081643391}},{"type":"Feature","geometry":{"type":"Point","coordinates":[134.63598,35.65005]},"properties":{"name":null,"country":"Japan","website":null,"opening_hours":null,"capacity":null,"phone":null,"address":null,"osmType":"node","osmId":3081643404}},{"type":"Feature","geometry":{"type":"Point","coordinates":[134.63566,35.65469]},"properties":{"name":null,"country":"Japan","website":null,"opening_hours":null,"capacity":null,"phone":null,"address":null,"osmType":"node","osmId":3081643431}},{"type":"Feature","geometry":{"type":"Point","coordinates":[134.66482,35.65569]},"properties":{"name":null,"country":"Japan","website":null,"opening_hours":null,"capacity":null,"phone":null,"address":null,"osmType":"node","osmId":3081643448}},{"type":"Feature","geometry":{"type":"Point","coordinates":[134.66738,35.65872]},"properties":{"name":null,"country":"Japan","website":null,"opening_hours":null,"capacity":null,"phone":null,"address":null,"osmType":"node","osmId":3081643455}},{"type":"Feature","geometry":{"type":"Point","coordinates":[134.75662,35.66345]},"properties":{"name":null,"country":"Japan","website":null,"opening_hours":null,"capacity":null,"phone":null,"address":null,"osmType":"node","osmId":3081643479}},{"type":"Feature","geometry":{"type":"Point","coordinates":[134.53845,35.66586]},"properties":{"name":"余部埼灯台","country":"Japan","website":null,"opening_hours":null,"capacity":null,"phone":null,"address":null,"osmType":"node","osmId":3081643501}},{"type":"Feature","geometry":{"type":"Point","coordinates":[134.7632,35.66634]},"properties":{"name":null,"country":"Japan","website":null,"opening_hours":null,"capacity":null,"phone":null,"address":null,"osmType":"node","osmId":3081643505}},{"type":"Feature","geometry":{"type":"Point","coordinates":[134.76436,35.67412]},"properties":{"name":"猫埼灯台","country":"Japan","website":null,"opening_hours":null,"capacity":null,"phone":"+81 0773 76 4120","address":null,"osmType":"node","osmId":3081643508}},{"type":"Feature","geometry":{"type":"Point","coordinates":[139.3887,34.79278]},"properties":{"name":"岡田港防波堤灯台","country":"Japan","website":null,"opening_hours":null,"capacity":null,"phone":null,"address":null,"osmType":"node","osmId":3084192335}},{"type":"Feature","geometry":{"type":"Point","coordinates":[129.4752,31.20279]},"properties":{"name":null,"country":"Japan","website":null,"opening_hours":null,"capacity":null,"phone":null,"address":null,"osmType":"node","osmId":3090584881}},{"type":"Feature","geometry":{"type":"Point","coordinates":[141.11864,40.87245]},"properties":{"name":"Joyato (old lighthouse)","country":"Japan","website":null,"opening_hours":null,"capacity":null,"phone":null,"address":null,"osmType":"node","osmId":3093431287}},{"type":"Feature","geometry":{"type":"Point","coordinates":[140.91167,41.5547]},"properties":{"name":"大間埼灯台","country":"Japan","website":null,"opening_hours":null,"capacity":null,"phone":null,"address":null,"osmType":"node","osmId":3103747563}},{"type":"Feature","geometry":{"type":"Point","coordinates":[136.97485,34.69761]},"properties":{"name":"師崎港南防波堤灯台","country":"Japan","website":null,"opening_hours":null,"capacity":null,"phone":null,"address":null,"osmType":"node","osmId":3176075362}},{"type":"Feature","geometry":{"type":"Point","coordinates":[136.72456,37.32373]},"properties":{"name":"猿山崎灯台","country":"Japan","website":null,"opening_hours":null,"capacity":null,"phone":null,"address":null,"osmType":"node","osmId":3281840040}},{"type":"Feature","geometry":{"type":"Point","coordinates":[130.90944,34.02375]},"properties":{"name":"安岡港甲防波堤灯台","country":"Japan","website":null,"opening_hours":null,"capacity":null,"phone":null,"address":null,"osmType":"node","osmId":3302639390}},{"type":"Feature","geometry":{"type":"Point","coordinates":[130.78315,34.09849]},"properties":{"name":"蓋井島灯台","country":"Japan","website":null,"opening_hours":null,"capacity":null,"phone":null,"address":null,"osmType":"node","osmId":3306081691}},{"type":"Feature","geometry":{"type":"Point","coordinates":[140.12012,41.8686]},"properties":{"name":null,"country":"Japan","website":null,"opening_hours":null,"capacity":null,"phone":null,"address":null,"osmType":"node","osmId":3376423735}},{"type":"Feature","geometry":{"type":"Point","coordinates":[139.54729,42.23928]},"properties":{"name":null,"country":"Japan","website":null,"opening_hours":null,"capacity":null,"phone":null,"address":null,"osmType":"node","osmId":3376579398}},{"type":"Feature","geometry":{"type":"Point","coordinates":[139.45293,42.05843]},"properties":{"name":null,"country":"Japan","website":null,"opening_hours":null,"capacity":null,"phone":null,"address":null,"osmType":"node","osmId":3377937236}},{"type":"Feature","geometry":{"type":"Point","coordinates":[139.52121,42.14859]},"properties":{"name":null,"country":"Japan","website":null,"opening_hours":null,"capacity":null,"phone":null,"address":null,"osmType":"node","osmId":3377941302}},{"type":"Feature","geometry":{"type":"Point","coordinates":[139.49113,42.07909]},"properties":{"name":null,"country":"Japan","website":null,"opening_hours":null,"capacity":null,"phone":null,"address":null,"osmType":"node","osmId":3378052895}},{"type":"Feature","geometry":{"type":"Point","coordinates":[139.40966,42.16955]},"properties":{"name":null,"country":"Japan","website":null,"opening_hours":null,"capacity":null,"phone":null,"address":null,"osmType":"node","osmId":3378053389}},{"type":"Feature","geometry":{"type":"Point","coordinates":[132.87511,34.29896]},"properties":{"name":null,"country":"Japan","website":null,"opening_hours":null,"capacity":null,"phone":null,"address":null,"osmType":"node","osmId":3408996204}},{"type":"Feature","geometry":{"type":"Point","coordinates":[132.99384,34.30266]},"properties":{"name":"大久野島灯台","country":"Japan","website":null,"opening_hours":null,"capacity":null,"phone":null,"address":null,"osmType":"node","osmId":3408996205}},{"type":"Feature","geometry":{"type":"Point","coordinates":[132.99863,34.30497]},"properties":{"name":null,"country":"Japan","website":null,"opening_hours":null,"capacity":null,"phone":null,"address":null,"osmType":"node","osmId":3408996206}},{"type":"Feature","geometry":{"type":"Point","coordinates":[132.91469,34.32709]},"properties":{"name":null,"country":"Japan","website":null,"opening_hours":null,"capacity":null,"phone":null,"address":null,"osmType":"node","osmId":3408996232}},{"type":"Feature","geometry":{"type":"Point","coordinates":[132.91993,34.32743]},"properties":{"name":null,"country":"Japan","website":null,"opening_hours":null,"capacity":null,"phone":null,"address":null,"osmType":"node","osmId":3408996233}},{"type":"Feature","geometry":{"type":"Point","coordinates":[132.99476,34.3359]},"properties":{"name":null,"country":"Japan","website":null,"opening_hours":null,"capacity":null,"phone":null,"address":null,"osmType":"node","osmId":3408996242}},{"type":"Feature","geometry":{"type":"Point","coordinates":[133.08498,34.35974]},"properties":{"name":null,"country":"Japan","website":null,"opening_hours":null,"capacity":null,"phone":null,"address":null,"osmType":"node","osmId":3408996672}},{"type":"Feature","geometry":{"type":"Point","coordinates":[133.09949,34.36421]},"properties":{"name":null,"country":"Japan","website":null,"opening_hours":null,"capacity":null,"phone":null,"address":null,"osmType":"node","osmId":3408996677}},{"type":"Feature","geometry":{"type":"Point","coordinates":[132.25446,33.76491]},"properties":{"name":null,"country":"Japan","website":null,"opening_hours":null,"capacity":null,"phone":null,"address":null,"osmType":"node","osmId":3412041007}},{"type":"Feature","geometry":{"type":"Point","coordinates":[132.25891,33.78167]},"properties":{"name":null,"country":"Japan","website":null,"opening_hours":null,"capacity":null,"phone":null,"address":null,"osmType":"node","osmId":3412041012}},{"type":"Feature","geometry":{"type":"Point","coordinates":[132.18243,33.84793]},"properties":{"name":null,"country":"Japan","website":null,"opening_hours":null,"capacity":null,"phone":null,"address":null,"osmType":"node","osmId":3412041020}},{"type":"Feature","geometry":{"type":"Point","coordinates":[132.36056,33.8592]},"properties":{"name":null,"country":"Japan","website":null,"opening_hours":null,"capacity":null,"phone":null,"address":null,"osmType":"node","osmId":3412041026}},{"type":"Feature","geometry":{"type":"Point","coordinates":[132.33263,33.88561]},"properties":{"name":null,"country":"Japan","website":null,"opening_hours":null,"capacity":null,"phone":null,"address":null,"osmType":"node","osmId":3412041043}},{"type":"Feature","geometry":{"type":"Point","coordinates":[132.28282,33.89961]},"properties":{"name":null,"country":"Japan","website":null,"opening_hours":null,"capacity":null,"phone":null,"address":null,"osmType":"node","osmId":3412041053}},{"type":"Feature","geometry":{"type":"Point","coordinates":[132.43537,33.93151]},"properties":{"name":null,"country":"Japan","website":null,"opening_hours":null,"capacity":null,"phone":null,"address":null,"osmType":"node","osmId":3412041299}},{"type":"Feature","geometry":{"type":"Point","coordinates":[132.44037,33.94503]},"properties":{"name":null,"country":"Japan","website":null,"opening_hours":null,"capacity":null,"phone":null,"address":null,"osmType":"node","osmId":3412041316}},{"type":"Feature","geometry":{"type":"Point","coordinates":[132.2653,33.94951]},"properties":{"name":null,"country":"Japan","website":null,"opening_hours":null,"capacity":null,"phone":null,"address":null,"osmType":"node","osmId":3412041327}},{"type":"Feature","geometry":{"type":"Point","coordinates":[132.1772,33.95404]},"properties":{"name":null,"country":"Japan","website":null,"opening_hours":null,"capacity":null,"phone":null,"address":null,"osmType":"node","osmId":3412041331}},{"type":"Feature","geometry":{"type":"Point","coordinates":[132.18362,33.95452]},"properties":{"name":null,"country":"Japan","website":null,"opening_hours":null,"capacity":null,"phone":null,"address":null,"osmType":"node","osmId":3412041332}},{"type":"Feature","geometry":{"type":"Point","coordinates":[132.28298,33.95571]},"properties":{"name":null,"country":"Japan","website":null,"opening_hours":null,"capacity":null,"phone":null,"address":null,"osmType":"node","osmId":3412041334}},{"type":"Feature","geometry":{"type":"Point","coordinates":[132.17495,33.95623]},"properties":{"name":null,"country":"Japan","website":null,"opening_hours":null,"capacity":null,"phone":null,"address":null,"osmType":"node","osmId":3412041336}},{"type":"Feature","geometry":{"type":"Point","coordinates":[132.34792,33.96155]},"properties":{"name":null,"country":"Japan","website":null,"opening_hours":null,"capacity":null,"phone":null,"address":null,"osmType":"node","osmId":3412041342}},{"type":"Feature","geometry":{"type":"Point","coordinates":[132.5796,33.96931]},"properties":{"name":null,"country":"Japan","website":null,"opening_hours":null,"capacity":null,"phone":null,"address":null,"osmType":"node","osmId":3412041344}},{"type":"Feature","geometry":{"type":"Point","coordinates":[132.42244,34.02131]},"properties":{"name":null,"country":"Japan","website":null,"opening_hours":null,"capacity":null,"phone":null,"address":null,"osmType":"node","osmId":3412041362}},{"type":"Feature","geometry":{"type":"Point","coordinates":[132.55485,34.02896]},"properties":{"name":null,"country":"Japan","website":null,"opening_hours":null,"capacity":null,"phone":null,"address":null,"osmType":"node","osmId":3412041365}},{"type":"Feature","geometry":{"type":"Point","coordinates":[132.7108,34.07074]},"properties":{"name":null,"country":"Japan","website":null,"opening_hours":null,"capacity":null,"phone":null,"address":null,"osmType":"node","osmId":3412041382}},{"type":"Feature","geometry":{"type":"Point","coordinates":[132.34766,34.17764]},"properties":{"name":null,"country":"Japan","website":null,"opening_hours":null,"capacity":null,"phone":null,"address":null,"osmType":"node","osmId":3412041388}},{"type":"Feature","geometry":{"type":"Point","coordinates":[132.3082,34.19224]},"properties":{"name":null,"country":"Japan","website":null,"opening_hours":null,"capacity":null,"phone":null,"address":null,"osmType":"node","osmId":3412041389}},{"type":"Feature","geometry":{"type":"Point","coordinates":[132.28437,34.29021]},"properties":{"name":null,"country":"Japan","website":null,"opening_hours":null,"capacity":null,"phone":null,"address":null,"osmType":"node","osmId":3412041396}},{"type":"Feature","geometry":{"type":"Point","coordinates":[132.29525,34.29408]},"properties":{"name":null,"country":"Japan","website":null,"opening_hours":null,"capacity":null,"phone":null,"address":null,"osmType":"node","osmId":3412041397}},{"type":"Feature","geometry":{"type":"Point","coordinates":[145.58882,43.27844]},"properties":{"name":"花咲灯台","country":"Japan","website":null,"opening_hours":null,"capacity":null,"phone":null,"address":null,"osmType":"node","osmId":3495901723}},{"type":"Feature","geometry":{"type":"Point","coordinates":[135.75437,33.43757]},"properties":{"name":"潮岬灯台","country":"Japan","website":null,"opening_hours":null,"capacity":null,"phone":null,"address":null,"osmType":"node","osmId":3506191578}},{"type":"Feature","geometry":{"type":"Point","coordinates":[130.38645,33.61993]},"properties":{"name":null,"country":"Japan","website":null,"opening_hours":null,"capacity":null,"phone":null,"address":null,"osmType":"node","osmId":3519313593}},{"type":"Feature","geometry":{"type":"Point","coordinates":[130.26388,30.43601]},"properties":{"name":null,"country":"Japan","website":null,"opening_hours":null,"capacity":null,"phone":null,"address":null,"osmType":"node","osmId":3555340075}},{"type":"Feature","geometry":{"type":"Point","coordinates":[130.14782,30.48593]},"properties":{"name":null,"country":"Japan","website":null,"opening_hours":null,"capacity":null,"phone":null,"address":null,"osmType":"node","osmId":3555344261}},{"type":"Feature","geometry":{"type":"Point","coordinates":[135.41541,34.73938]},"properties":{"name":null,"country":"Japan","website":null,"opening_hours":null,"capacity":null,"phone":null,"address":null,"osmType":"node","osmId":3568166333}},{"type":"Feature","geometry":{"type":"Point","coordinates":[131.1307,31.28124]},"properties":{"name":null,"country":"Japan","website":null,"opening_hours":null,"capacity":null,"phone":null,"address":null,"osmType":"node","osmId":3636495955}},{"type":"Feature","geometry":{"type":"Point","coordinates":[131.08274,31.27883]},"properties":{"name":null,"country":"Japan","website":null,"opening_hours":null,"capacity":null,"phone":null,"address":null,"osmType":"node","osmId":3636495957}},{"type":"Feature","geometry":{"type":"Point","coordinates":[141.57604,40.53972]},"properties":{"name":"鮫角灯台","country":"Japan","website":null,"opening_hours":null,"capacity":null,"phone":"0178-32-4691","address":null,"osmType":"node","osmId":3656091233}},{"type":"Feature","geometry":{"type":"Point","coordinates":[141.62454,38.83059]},"properties":{"name":"陸前大島灯台","country":"Japan","website":null,"opening_hours":null,"capacity":null,"phone":null,"address":null,"osmType":"node","osmId":3663139078}},{"type":"Feature","geometry":{"type":"Point","coordinates":[141.62624,38.85343]},"properties":{"name":null,"country":"Japan","website":null,"opening_hours":null,"capacity":null,"phone":null,"address":null,"osmType":"node","osmId":3663139657}},{"type":"Feature","geometry":{"type":"Point","coordinates":[141.61953,38.8846]},"properties":{"name":null,"country":"Japan","website":null,"opening_hours":null,"capacity":null,"phone":null,"address":null,"osmType":"node","osmId":3663140754}},{"type":"Feature","geometry":{"type":"Point","coordinates":[136.89953,34.27615]},"properties":{"name":"大王崎灯台","country":"Japan","website":null,"opening_hours":null,"capacity":null,"phone":null,"address":null,"osmType":"node","osmId":3665656544}},{"type":"Feature","geometry":{"type":"Point","coordinates":[136.90642,34.3676]},"properties":{"name":null,"country":"Japan","website":null,"opening_hours":null,"capacity":null,"phone":null,"address":null,"osmType":"node","osmId":3676327883}},{"type":"Feature","geometry":{"type":"Point","coordinates":[136.76531,34.29121]},"properties":{"name":null,"country":"Japan","website":null,"opening_hours":null,"capacity":null,"phone":null,"address":null,"osmType":"node","osmId":3677443687}},{"type":"Feature","geometry":{"type":"Point","coordinates":[136.75242,34.27047]},"properties":{"name":"御座岬灯台","country":"Japan","website":null,"opening_hours":null,"capacity":null,"phone":null,"address":null,"osmType":"node","osmId":3695250062}},{"type":"Feature","geometry":{"type":"Point","coordinates":[136.84753,34.24711]},"properties":{"name":"麦崎灯台","country":"Japan","website":null,"opening_hours":null,"capacity":null,"phone":null,"address":null,"osmType":"node","osmId":3695250063}},{"type":"Feature","geometry":{"type":"Point","coordinates":[130.59664,31.59358]},"properties":{"name":null,"country":"Japan","website":null,"opening_hours":null,"capacity":null,"phone":null,"address":null,"osmType":"node","osmId":3699553199}},{"type":"Feature","geometry":{"type":"Point","coordinates":[130.59005,31.56684]},"properties":{"name":"神瀬灯台","country":"Japan","website":null,"opening_hours":null,"capacity":null,"phone":null,"address":null,"osmType":"node","osmId":3708719575}},{"type":"Feature","geometry":{"type":"Point","coordinates":[135.51433,34.69069]},"properties":{"name":"常夜鐙","country":"Japan","website":null,"opening_hours":null,"capacity":null,"phone":null,"address":null,"osmType":"node","osmId":3722269461}},{"type":"Feature","geometry":{"type":"Point","coordinates":[135.51387,34.6907]},"properties":{"name":"常夜鐙","country":"Japan","website":null,"opening_hours":null,"capacity":null,"phone":null,"address":null,"osmType":"node","osmId":3722269462}},{"type":"Feature","geometry":{"type":"Point","coordinates":[130.19333,30.45734]},"properties":{"name":null,"country":"Japan","website":null,"opening_hours":null,"capacity":null,"phone":null,"address":null,"osmType":"node","osmId":3730395410}},{"type":"Feature","geometry":{"type":"Point","coordinates":[139.70171,40.00509]},"properties":{"name":"入道埼灯台","country":"Japan","website":null,"opening_hours":null,"capacity":null,"phone":null,"address":null,"osmType":"node","osmId":3756878551}},{"type":"Feature","geometry":{"type":"Point","coordinates":[144.99399,44.07602]},"properties":{"name":null,"country":"Japan","website":null,"opening_hours":null,"capacity":null,"phone":null,"address":null,"osmType":"node","osmId":3789932930}},{"type":"Feature","geometry":{"type":"Point","coordinates":[144.99336,44.07495]},"properties":{"name":null,"country":"Japan","website":null,"opening_hours":null,"capacity":null,"phone":null,"address":null,"osmType":"node","osmId":3789932931}},{"type":"Feature","geometry":{"type":"Point","coordinates":[137.03039,34.72783]},"properties":{"name":null,"country":"Japan","website":null,"opening_hours":null,"capacity":null,"phone":null,"address":null,"osmType":"node","osmId":3818217665}},{"type":"Feature","geometry":{"type":"Point","coordinates":[140.64273,41.17457]},"properties":{"name":"平舘灯台","country":"Japan","website":null,"opening_hours":null,"capacity":null,"phone":null,"address":null,"osmType":"node","osmId":3905816823}},{"type":"Feature","geometry":{"type":"Point","coordinates":[140.34241,41.25849]},"properties":{"name":"龍飛埼灯台","country":"Japan","website":null,"opening_hours":null,"capacity":null,"phone":null,"address":null,"osmType":"node","osmId":3906862678}},{"type":"Feature","geometry":{"type":"Point","coordinates":[132.80242,32.74749]},"properties":{"name":"Kanaezaki Lighthouse","country":"Japan","website":null,"opening_hours":null,"capacity":null,"phone":null,"address":null,"osmType":"node","osmId":3925534371}},{"type":"Feature","geometry":{"type":"Point","coordinates":[132.54347,32.70451]},"properties":{"name":null,"country":"Japan","website":null,"opening_hours":null,"capacity":null,"phone":null,"address":null,"osmType":"node","osmId":3928353923}},{"type":"Feature","geometry":{"type":"Point","coordinates":[132.54557,32.75427]},"properties":{"name":null,"country":"Japan","website":null,"opening_hours":null,"capacity":null,"phone":null,"address":null,"osmType":"node","osmId":3928356736}},{"type":"Feature","geometry":{"type":"Point","coordinates":[132.62084,32.76741]},"properties":{"name":null,"country":"Japan","website":null,"opening_hours":null,"capacity":null,"phone":null,"address":null,"osmType":"node","osmId":3928356746}},{"type":"Feature","geometry":{"type":"Point","coordinates":[132.62889,32.7731]},"properties":{"name":null,"country":"Japan","website":null,"opening_hours":null,"capacity":null,"phone":null,"address":null,"osmType":"node","osmId":3928356747}},{"type":"Feature","geometry":{"type":"Point","coordinates":[132.10109,32.97063]},"properties":{"name":null,"country":"Japan","website":null,"opening_hours":null,"capacity":null,"phone":null,"address":null,"osmType":"node","osmId":3928430411}},{"type":"Feature","geometry":{"type":"Point","coordinates":[132.9551,32.76992]},"properties":{"name":null,"country":"Japan","website":null,"opening_hours":null,"capacity":null,"phone":null,"address":null,"osmType":"node","osmId":3928790308}},{"type":"Feature","geometry":{"type":"Point","coordinates":[132.96642,32.80213]},"properties":{"name":null,"country":"Japan","website":null,"opening_hours":null,"capacity":null,"phone":null,"address":null,"osmType":"node","osmId":3928791839}},{"type":"Feature","geometry":{"type":"Point","coordinates":[132.99301,32.86312]},"properties":{"name":"布崎灯台","country":"Japan","website":null,"opening_hours":null,"capacity":null,"phone":null,"address":null,"osmType":"node","osmId":3930787591}},{"type":"Feature","geometry":{"type":"Point","coordinates":[133.45698,33.44326]},"properties":{"name":null,"country":"Japan","website":null,"opening_hours":null,"capacity":null,"phone":null,"address":null,"osmType":"node","osmId":3950127800}},{"type":"Feature","geometry":{"type":"Point","coordinates":[133.45489,33.4441]},"properties":{"name":null,"country":"Japan","website":null,"opening_hours":null,"capacity":null,"phone":null,"address":null,"osmType":"node","osmId":3954003290}},{"type":"Feature","geometry":{"type":"Point","coordinates":[133.46185,33.43042]},"properties":{"name":"白ノ鼻燈台","country":"Japan","website":null,"opening_hours":null,"capacity":null,"phone":null,"address":null,"osmType":"node","osmId":3957029655}},{"type":"Feature","geometry":{"type":"Point","coordinates":[131.50293,32.06826]},"properties":{"name":"富田灯台","country":"Japan","website":null,"opening_hours":null,"capacity":null,"phone":null,"address":null,"osmType":"node","osmId":3963632891}},{"type":"Feature","geometry":{"type":"Point","coordinates":[133.98352,34.48893]},"properties":{"name":null,"country":"Japan","website":null,"opening_hours":null,"capacity":null,"phone":null,"address":null,"osmType":"node","osmId":3965264090}},{"type":"Feature","geometry":{"type":"Point","coordinates":[133.58312,33.50099]},"properties":{"name":null,"country":"Japan","website":null,"opening_hours":null,"capacity":null,"phone":null,"address":null,"osmType":"node","osmId":3968913333}},{"type":"Feature","geometry":{"type":"Point","coordinates":[133.57298,33.49616]},"properties":{"name":"高知灯台","country":"Japan","website":null,"opening_hours":null,"capacity":null,"phone":null,"address":null,"osmType":"node","osmId":3968917098}},{"type":"Feature","geometry":{"type":"Point","coordinates":[137.39146,36.82052]},"properties":{"name":null,"country":"Japan","website":null,"opening_hours":null,"capacity":null,"phone":null,"address":null,"osmType":"node","osmId":4006530007}},{"type":"Feature","geometry":{"type":"Point","coordinates":[131.64013,33.72797]},"properties":{"name":null,"country":"Japan","website":null,"opening_hours":null,"capacity":null,"phone":null,"address":null,"osmType":"node","osmId":4040079833}},{"type":"Feature","geometry":{"type":"Point","coordinates":[133.95867,34.46854]},"properties":{"name":null,"country":"Japan","website":null,"opening_hours":null,"capacity":null,"phone":null,"address":null,"osmType":"node","osmId":4041431688}},{"type":"Feature","geometry":{"type":"Point","coordinates":[133.97219,34.48045]},"properties":{"name":null,"country":"Japan","website":null,"opening_hours":null,"capacity":null,"phone":null,"address":null,"osmType":"node","osmId":4041432190}},{"type":"Feature","geometry":{"type":"Point","coordinates":[134.0158,34.51242]},"properties":{"name":null,"country":"Japan","website":null,"opening_hours":null,"capacity":null,"phone":null,"address":null,"osmType":"node","osmId":4041518908}},{"type":"Feature","geometry":{"type":"Point","coordinates":[138.88642,35.03598]},"properties":{"name":null,"country":"Japan","website":null,"opening_hours":null,"capacity":null,"phone":null,"address":null,"osmType":"node","osmId":4061372783}},{"type":"Feature","geometry":{"type":"Point","coordinates":[138.78793,35.03037]},"properties":{"name":null,"country":"Japan","website":null,"opening_hours":null,"capacity":null,"phone":null,"address":null,"osmType":"node","osmId":4061418181}},{"type":"Feature","geometry":{"type":"Point","coordinates":[138.87771,35.02784]},"properties":{"name":"木負消波堤灯台","country":"Japan","website":null,"opening_hours":null,"capacity":null,"phone":null,"address":null,"osmType":"node","osmId":4061477900}},{"type":"Feature","geometry":{"type":"Point","coordinates":[138.89761,35.04363]},"properties":{"name":null,"country":"Japan","website":null,"opening_hours":null,"capacity":null,"phone":null,"address":null,"osmType":"node","osmId":4061772482}},{"type":"Feature","geometry":{"type":"Point","coordinates":[138.89641,35.04826]},"properties":{"name":null,"country":"Japan","website":null,"opening_hours":null,"capacity":null,"phone":null,"address":null,"osmType":"node","osmId":4061772483}},{"type":"Feature","geometry":{"type":"Point","coordinates":[138.87828,35.0578]},"properties":{"name":null,"country":"Japan","website":null,"opening_hours":null,"capacity":null,"phone":null,"address":null,"osmType":"node","osmId":4061772484}},{"type":"Feature","geometry":{"type":"Point","coordinates":[138.85168,35.07877]},"properties":{"name":null,"country":"Japan","website":null,"opening_hours":null,"capacity":null,"phone":null,"address":null,"osmType":"node","osmId":4061772781}},{"type":"Feature","geometry":{"type":"Point","coordinates":[138.85099,35.07999]},"properties":{"name":null,"country":"Japan","website":null,"opening_hours":null,"capacity":null,"phone":null,"address":null,"osmType":"node","osmId":4061772783}},