{"type":"FeatureCollection","features":[{"type":"Feature","geometry":{"type":"Point","coordinates":[118.73352,9.72999]},"properties":{"name":null,"country":"Philippines","website":null,"opening_hours":null,"capacity":null,"phone":null,"address":null,"osmType":"node","osmId":469173268}},{"type":"Feature","geometry":{"type":"Point","coordinates":[119.78562,16.30711]},"properties":{"name":"Cape Bolinao Lighthouse","country":"Philippines","website":null,"opening_hours":null,"capacity":null,"phone":null,"address":null,"osmType":"node","osmId":1271040284}},{"type":"Feature","geometry":{"type":"Point","coordinates":[119.33867,10.31373]},"properties":{"name":"Roxas Port","country":"Philippines","website":null,"opening_hours":null,"capacity":null,"phone":null,"address":null,"osmType":"node","osmId":4069757697}},{"type":"Feature","geometry":{"type":"Point","coordinates":[117.00301,7.81749]},"properties":{"name":"Cape Melville Lighthouse","country":"Philippines","website":null,"opening_hours":null,"capacity":null,"phone":null,"address":null,"osmType":"node","osmId":4845005150}},{"type":"Feature","geometry":{"type":"Point","coordinates":[117.07403,7.99207]},"properties":{"name":"Espina Point Lighthouse","country":"Philippines","website":null,"opening_hours":null,"capacity":null,"phone":null,"address":null,"osmType":"node","osmId":6655078447}},{"type":"Feature","geometry":{"type":"Point","coordinates":[119.97486,11.63215]},"properties":{"name":"Decabaito Lighthouse","country":"Philippines","website":null,"opening_hours":null,"capacity":null,"phone":null,"address":null,"osmType":"node","osmId":6914840707}},{"type":"Feature","geometry":{"type":"Point","coordinates":[119.99495,10.49378]},"properties":{"name":"Langoy Lighthouse","country":"Philippines","website":null,"opening_hours":null,"capacity":null,"phone":null,"address":null,"osmType":"node","osmId":6919303163}},{"type":"Feature","geometry":{"type":"Point","coordinates":[119.50156,11.43655]},"properties":{"name":"Cabuli Lighthouse","country":"Philippines","website":null,"opening_hours":null,"capacity":null,"phone":null,"address":null,"osmType":"node","osmId":6919308906}},{"type":"Feature","geometry":{"type":"Point","coordinates":[119.35232,10.31514]},"properties":{"name":"Barbacan Lighthouse","country":"Philippines","website":null,"opening_hours":null,"capacity":null,"phone":null,"address":null,"osmType":"node","osmId":6919336374}},{"type":"Feature","geometry":{"type":"Point","coordinates":[119.51116,10.82794]},"properties":{"name":"Taytay Lighthouse","country":"Philippines","website":null,"opening_hours":null,"capacity":null,"phone":null,"address":null,"osmType":"node","osmId":6919368891}},{"type":"Feature","geometry":{"type":"Point","coordinates":[119.9863,10.55057]},"properties":{"name":null,"country":"Philippines","website":null,"opening_hours":null,"capacity":null,"phone":null,"address":null,"osmType":"node","osmId":6919377944}},{"type":"Feature","geometry":{"type":"Point","coordinates":[118.73243,9.7301]},"properties":{"name":"Tide Pole Lighthouse","country":"Philippines","website":null,"opening_hours":null,"capacity":null,"phone":null,"address":"Puerto Princesa","osmType":"node","osmId":6919389748}},{"type":"Feature","geometry":{"type":"Point","coordinates":[118.76843,9.72286]},"properties":{"name":"Bancao-Bancao Lighthouse","country":"Philippines","website":null,"opening_hours":null,"capacity":null,"phone":null,"address":"Puerto Princesa","osmType":"node","osmId":6919451412}},{"type":"Feature","geometry":{"type":"Point","coordinates":[118.40768,9.24462]},"properties":{"name":"Panacan Lighthouse","country":"Philippines","website":null,"opening_hours":null,"capacity":null,"phone":null,"address":"Narra","osmType":"node","osmId":6919461521}},{"type":"Feature","geometry":{"type":"Point","coordinates":[117.83611,8.76844]},"properties":{"name":"Brooke's Point Lighthouse","country":"Philippines","website":null,"opening_hours":null,"capacity":null,"phone":null,"address":"Brooke's Point","osmType":"node","osmId":6919486812}},{"type":"Feature","geometry":{"type":"Point","coordinates":[117.63284,9.04635]},"properties":{"name":"Tarumpitao Lighthouse","country":"Philippines","website":null,"opening_hours":null,"capacity":null,"phone":null,"address":null,"osmType":"node","osmId":6919511177}},{"type":"Feature","geometry":{"type":"Point","coordinates":[119.07278,10.50777]},"properties":{"name":"Cacnipa Lighthouse","country":"Philippines","website":null,"opening_hours":null,"capacity":null,"phone":null,"address":null,"osmType":"node","osmId":6919571046}},{"type":"Feature","geometry":{"type":"Point","coordinates":[118.76484,10.15486]},"properties":{"name":"Camungyan Lighthouse","country":"Philippines","website":null,"opening_hours":null,"capacity":null,"phone":null,"address":"Puerto Princesa","osmType":"node","osmId":6919604669}},{"type":"Feature","geometry":{"type":"Point","coordinates":[117.22245,7.91658]},"properties":{"name":"Comiran Lighthouse","country":"Philippines","website":null,"opening_hours":null,"capacity":null,"phone":null,"address":"Balabac","osmType":"node","osmId":6919610742}},{"type":"Feature","geometry":{"type":"Point","coordinates":[117.99472,9.23941]},"properties":{"name":"Quezon Lighthouse","country":"Philippines","website":null,"opening_hours":null,"capacity":null,"phone":null,"address":null,"osmType":"node","osmId":6919617201}},{"type":"Feature","geometry":{"type":"Point","coordinates":[119.41095,11.36213]},"properties":{"name":"Lalutaya Lighthouse","country":"Philippines","website":null,"opening_hours":null,"capacity":null,"phone":null,"address":null,"osmType":"node","osmId":6919637491}},{"type":"Feature","geometry":{"type":"Point","coordinates":[119.76197,15.98476]},"properties":{"name":"Caongaoan Lighthouse","country":"Philippines","website":null,"opening_hours":null,"capacity":null,"phone":null,"address":null,"osmType":"node","osmId":7103863250}},{"type":"Feature","geometry":{"type":"Point","coordinates":[119.90235,15.42953]},"properties":{"name":"Palauig Lighthouse","country":"Philippines","website":null,"opening_hours":null,"capacity":null,"phone":null,"address":null,"osmType":"node","osmId":9443688424}},{"type":"Feature","geometry":{"type":"Point","coordinates":[118.04577,8.96634]},"properties":{"name":"Iraray Lighthouse","country":"Philippines","website":null,"opening_hours":null,"capacity":null,"phone":null,"address":"Sofronio Española","osmType":"node","osmId":9461853299}},{"type":"Feature","geometry":{"type":"Point","coordinates":[117.82669,8.76971]},"properties":{"name":"Brookes Point Jetty G Lighthouse","country":"Philippines","website":null,"opening_hours":null,"capacity":null,"phone":null,"address":null,"osmType":"node","osmId":9473420221}},{"type":"Feature","geometry":{"type":"Point","coordinates":[117.82796,8.76945]},"properties":{"name":"Brookes Point Jetty R Lighthouse","country":"Philippines","website":null,"opening_hours":null,"capacity":null,"phone":null,"address":null,"osmType":"node","osmId":9473420712}},{"type":"Feature","geometry":{"type":"Point","coordinates":[119.79671,15.7921]},"properties":{"name":"Hermana Mayor Lighthouse","country":"Philippines","website":null,"opening_hours":null,"capacity":null,"phone":null,"address":null,"osmType":"node","osmId":10694645710}},{"type":"Feature","geometry":{"type":"Point","coordinates":[119.91476,16.37869]},"properties":{"name":"Port Bolinao Lighthouse","country":"Philippines","website":null,"opening_hours":null,"capacity":null,"phone":null,"address":null,"osmType":"node","osmId":10792340331}},{"type":"Feature","geometry":{"type":"Point","coordinates":[118.35417,9.63059]},"properties":{"name":"Apurawan Light Station","country":"Philippines","website":null,"opening_hours":null,"capacity":null,"phone":null,"address":null,"osmType":"node","osmId":11493087225}},{"type":"Feature","geometry":{"type":"Point","coordinates":[119.16117,10.03766]},"properties":{"name":"Bold Point Lighthouse","country":"Philippines","website":null,"opening_hours":null,"capacity":null,"phone":null,"address":null,"osmType":"node","osmId":11493422774}},{"type":"Feature","geometry":{"type":"Point","coordinates":[119.77701,16.13258]},"properties":{"name":"Sabangan Point Lighthouse","country":"Philippines","website":null,"opening_hours":null,"capacity":null,"phone":null,"address":null,"osmType":"node","osmId":11533219099}},{"type":"Feature","geometry":{"type":"Point","coordinates":[119.92343,16.44359]},"properties":{"name":"Silaque Lighthouse","country":"Philippines","website":null,"opening_hours":null,"capacity":null,"phone":null,"address":null,"osmType":"node","osmId":11533231764}},{"type":"Feature","geometry":{"type":"Point","coordinates":[120.99214,13.5214]},"properties":{"name":"Escarceo Point Lighthouse","country":"Philippines","website":null,"opening_hours":null,"capacity":null,"phone":null,"address":null,"osmType":"node","osmId":206258158}},{"type":"Feature","geometry":{"type":"Point","coordinates":[120.65308,13.77192]},"properties":{"name":"Cape Santiago Lighthouse","country":"Philippines","website":null,"opening_hours":null,"capacity":null,"phone":null,"address":null,"osmType":"node","osmId":311481583}},{"type":"Feature","geometry":{"type":"Point","coordinates":[124.11118,11.34327]},"properties":{"name":null,"country":"Philippines","website":null,"opening_hours":null,"capacity":null,"phone":null,"address":null,"osmType":"node","osmId":323068109}},{"type":"Feature","geometry":{"type":"Point","coordinates":[124.61013,11.00313]},"properties":{"name":"Ormoc Lighthouse","country":"Philippines","website":null,"opening_hours":null,"capacity":null,"phone":null,"address":"Ormoc","osmType":"node","osmId":323609232}},{"type":"Feature","geometry":{"type":"Point","coordinates":[120.28084,16.61486]},"properties":{"name":"San Fernando Point Lighthouse","country":"Philippines","website":null,"opening_hours":null,"capacity":null,"phone":null,"address":null,"osmType":"node","osmId":528711123}},{"type":"Feature","geometry":{"type":"Point","coordinates":[123.44823,10.46926]},"properties":{"name":"Refugio Lighthouse","country":"Philippines","website":null,"opening_hours":null,"capacity":null,"phone":null,"address":null,"osmType":"node","osmId":607656423}},{"type":"Feature","geometry":{"type":"Point","coordinates":[123.27051,9.08274]},"properties":{"name":"Apo Island Lighthouse","country":"Philippines","website":null,"opening_hours":null,"capacity":null,"phone":null,"address":"Dauin","osmType":"node","osmId":617255272}},{"type":"Feature","geometry":{"type":"Point","coordinates":[120.67051,15.09899]},"properties":{"name":"Lakeshore Light House","country":"Philippines","website":null,"opening_hours":null,"capacity":null,"phone":null,"address":null,"osmType":"node","osmId":769447677}},{"type":"Feature","geometry":{"type":"Point","coordinates":[120.5979,18.51227]},"properties":{"name":"Cape Bojeador Lighthouse","country":"Philippines","website":null,"opening_hours":null,"capacity":null,"phone":null,"address":"Maharlika Highway, 2724 Burgos","osmType":"node","osmId":910790783}},{"type":"Feature","geometry":{"type":"Point","coordinates":[124.0185,10.3832]},"properties":{"name":"Bagacay Point Lighthouse","country":"Philippines","website":null,"opening_hours":null,"capacity":null,"phone":null,"address":null,"osmType":"node","osmId":927670772}},{"type":"Feature","geometry":{"type":"Point","coordinates":[120.57689,14.37977]},"properties":{"name":"Old Spanish Lighthouse","country":"Philippines","website":null,"opening_hours":null,"capacity":null,"phone":null,"address":null,"osmType":"node","osmId":1177539134}},{"type":"Feature","geometry":{"type":"Point","coordinates":[122.24932,17.41098]},"properties":{"name":"Maconacon Lighthouse","country":"Philippines","website":null,"opening_hours":null,"capacity":null,"phone":null,"address":null,"osmType":"node","osmId":1271040032}},{"type":"Feature","geometry":{"type":"Point","coordinates":[122.14185,18.51014]},"properties":{"name":"San Vicente Lighthouse","country":"Philippines","website":null,"opening_hours":null,"capacity":null,"phone":null,"address":null,"osmType":"node","osmId":1271040037}},{"type":"Feature","geometry":{"type":"Point","coordinates":[122.13772,18.57989]},"properties":{"name":"Cape Engaño Lighthouse","country":"Philippines","website":null,"opening_hours":null,"capacity":null,"phone":null,"address":null,"osmType":"node","osmId":1271040038}},{"type":"Feature","geometry":{"type":"Point","coordinates":[122.59916,13.16285]},"properties":{"name":null,"country":"Philippines","website":null,"opening_hours":null,"capacity":null,"phone":null,"address":null,"osmType":"node","osmId":1271040109}},{"type":"Feature","geometry":{"type":"Point","coordinates":[124.14121,12.48141]},"properties":{"name":"Capul Lighthouse","country":"Philippines","website":null,"opening_hours":null,"capacity":null,"phone":null,"address":null,"osmType":"node","osmId":1271040121}},{"type":"Feature","geometry":{"type":"Point","coordinates":[123.66163,12.8895]},"properties":{"name":"Pilar Lighthouse","country":"Philippines","website":null,"opening_hours":null,"capacity":null,"phone":null,"address":null,"osmType":"node","osmId":1271040127}},{"type":"Feature","geometry":{"type":"Point","coordinates":[121.08511,13.5728]},"properties":{"name":"Verde Island Lighthouse","country":"Philippines","website":null,"opening_hours":null,"capacity":null,"phone":null,"address":null,"osmType":"node","osmId":1271040189}},{"type":"Feature","geometry":{"type":"Point","coordinates":[121.03663,13.63439]},"properties":{"name":"Matuko Point Lighthouse","country":"Philippines","website":null,"opening_hours":null,"capacity":null,"phone":null,"address":"Batangas","osmType":"node","osmId":1271040202}},{"type":"Feature","geometry":{"type":"Point","coordinates":[120.49159,14.05588]},"properties":{"name":"Fortune Island Lighthouse","country":"Philippines","website":null,"opening_hours":null,"capacity":null,"phone":null,"address":null,"osmType":"node","osmId":1271040235}},{"type":"Feature","geometry":{"type":"Point","coordinates":[120.52211,14.37573]},"properties":{"name":"La Monja Lighthouse","country":"Philippines","website":null,"opening_hours":null,"capacity":null,"phone":null,"address":"2105 Mariveles","osmType":"node","osmId":1271040238}},{"type":"Feature","geometry":{"type":"Point","coordinates":[120.2347,14.8322]},"properties":{"name":"Mayanga Lighthouse","country":"Philippines","website":null,"opening_hours":null,"capacity":null,"phone":null,"address":null,"osmType":"node","osmId":1271040276}},{"type":"Feature","geometry":{"type":"Point","coordinates":[124.06802,11.72101]},"properties":{"name":"Caduruan Point","country":"Philippines","website":null,"opening_hours":null,"capacity":null,"phone":null,"address":null,"osmType":"node","osmId":1271040523}},{"type":"Feature","geometry":{"type":"Point","coordinates":[123.80912,12.30911]},"properties":{"name":"Matabao Lighthouse","country":"Philippines","website":null,"opening_hours":null,"capacity":null,"phone":null,"address":null,"osmType":"node","osmId":1271040546}},{"type":"Feature","geometry":{"type":"Point","coordinates":[123.17864,11.60366]},"properties":{"name":"Manigonigo Lighthouse","country":"Philippines","website":null,"opening_hours":null,"capacity":null,"phone":null,"address":null,"osmType":"node","osmId":1271040622}},{"type":"Feature","geometry":{"type":"Point","coordinates":[123.72627,11.48698]},"properties":{"name":"Tanguigui Lighthouse","country":"Philippines","website":null,"opening_hours":null,"capacity":null,"phone":null,"address":null,"osmType":"node","osmId":1271040632}},{"type":"Feature","geometry":{"type":"Point","coordinates":[121.93635,10.7377]},"properties":{"name":"Tubigan Point","country":"Philippines","website":null,"opening_hours":null,"capacity":null,"phone":null,"address":null,"osmType":"node","osmId":1271040656}},{"type":"Feature","geometry":{"type":"Point","coordinates":[123.42129,10.4773]},"properties":{"name":"San Carlos Lighthouse","country":"Philippines","website":null,"opening_hours":null,"capacity":null,"phone":null,"address":null,"osmType":"node","osmId":1271040662}},{"type":"Feature","geometry":{"type":"Point","coordinates":[124.10388,10.99024]},"properties":{"name":"Capitancillo Lighthouse","country":"Philippines","website":null,"opening_hours":null,"capacity":null,"phone":null,"address":null,"osmType":"node","osmId":1271040716}},{"type":"Feature","geometry":{"type":"Point","coordinates":[123.94152,11.11809]},"properties":{"name":"Hagnaya Lighthouse","country":"Philippines","website":null,"opening_hours":null,"capacity":null,"phone":null,"address":null,"osmType":"node","osmId":1271040741}},{"type":"Feature","geometry":{"type":"Point","coordinates":[123.91283,9.62076]},"properties":{"name":"Baclayon Lighthouse","country":"Philippines","website":null,"opening_hours":null,"capacity":null,"phone":null,"address":"Tagbilaran East Road, 6301","osmType":"node","osmId":1271040809}},{"type":"Feature","geometry":{"type":"Point","coordinates":[123.68426,9.51629]},"properties":{"name":"Balicasag Lighthouse","country":"Philippines","website":null,"opening_hours":null,"capacity":null,"phone":null,"address":null,"osmType":"node","osmId":1271040837}},{"type":"Feature","geometry":{"type":"Point","coordinates":[125.00378,10.15655]},"properties":{"name":"Malitbog Lighthouse","country":"Philippines","website":null,"opening_hours":null,"capacity":null,"phone":null,"address":null,"osmType":"node","osmId":1271040895}},{"type":"Feature","geometry":{"type":"Point","coordinates":[125.73815,9.77738]},"properties":{"name":"Hinatuan East Lighthouse","country":"Philippines","website":null,"opening_hours":null,"capacity":null,"phone":null,"address":null,"osmType":"node","osmId":1271041033}},{"type":"Feature","geometry":{"type":"Point","coordinates":[125.58454,9.79193]},"properties":{"name":"Rasa Island Lighthouse","country":"Philippines","website":null,"opening_hours":null,"capacity":null,"phone":null,"address":null,"osmType":"node","osmId":1271041035}},{"type":"Feature","geometry":{"type":"Point","coordinates":[125.9328,9.56198]},"properties":{"name":"Dahakit Lighthouse","country":"Philippines","website":null,"opening_hours":null,"capacity":null,"phone":null,"address":null,"osmType":"node","osmId":1271041038}},{"type":"Feature","geometry":{"type":"Point","coordinates":[126.19302,6.26989]},"properties":{"name":"Cape San Agustin Lighthouse","country":"Philippines","website":null,"opening_hours":null,"capacity":null,"phone":null,"address":null,"osmType":"node","osmId":1271041049}},{"type":"Feature","geometry":{"type":"Point","coordinates":[122.13975,7.58321]},"properties":{"name":"Sirawai Lighthouse","country":"Philippines","website":null,"opening_hours":null,"capacity":null,"phone":null,"address":null,"osmType":"node","osmId":1271041083}},{"type":"Feature","geometry":{"type":"Point","coordinates":[125.4804,4.73443]},"properties":{"name":null,"country":"Philippines","website":null,"opening_hours":null,"capacity":null,"phone":null,"address":null,"osmType":"node","osmId":1293784386}},{"type":"Feature","geometry":{"type":"Point","coordinates":[121.62289,13.90032]},"properties":{"name":null,"country":"Philippines","website":null,"opening_hours":null,"capacity":null,"phone":null,"address":null,"osmType":"node","osmId":1775964756}},{"type":"Feature","geometry":{"type":"Point","coordinates":[122.47458,10.48141]},"properties":{"name":"Luzaran Lighthouse","country":"Philippines","website":null,"opening_hours":null,"capacity":null,"phone":null,"address":null,"osmType":"node","osmId":1813380531}},{"type":"Feature","geometry":{"type":"Point","coordinates":[120.29969,13.44558]},"properties":{"name":"Cape Calavite Lighthouse","country":"Philippines","website":null,"opening_hours":null,"capacity":null,"phone":null,"address":null,"osmType":"node","osmId":1909266815}},{"type":"Feature","geometry":{"type":"Point","coordinates":[124.63425,9.20193]},"properties":{"name":"Catarman Lighthouse","country":"Philippines","website":null,"opening_hours":null,"capacity":null,"phone":null,"address":"9104","osmType":"node","osmId":2181967132}},{"type":"Feature","geometry":{"type":"Point","coordinates":[122.53931,13.96099]},"properties":{"name":null,"country":"Philippines","website":null,"opening_hours":null,"capacity":null,"phone":null,"address":null,"osmType":"node","osmId":2266550487}},{"type":"Feature","geometry":{"type":"Point","coordinates":[121.26248,13.59882]},"properties":{"name":"Malabrigo Lighthouse","country":"Philippines","website":null,"opening_hours":null,"capacity":null,"phone":null,"address":null,"osmType":"node","osmId":2279145540}},{"type":"Feature","geometry":{"type":"Point","coordinates":[121.27624,14.49545]},"properties":{"name":"Tanay Lighthouse","country":"Philippines","website":null,"opening_hours":null,"capacity":null,"phone":null,"address":null,"osmType":"node","osmId":2322755549}},{"type":"Feature","geometry":{"type":"Point","coordinates":[123.02421,11.75763]},"properties":{"name":"Zapato Menor Lighthouse","country":"Philippines","website":null,"opening_hours":null,"capacity":null,"phone":null,"address":null,"osmType":"node","osmId":2450223395}},{"type":"Feature","geometry":{"type":"Point","coordinates":[122.70559,11.60848]},"properties":{"name":"Culasi Point Lighthouse","country":"Philippines","website":null,"opening_hours":null,"capacity":null,"phone":null,"address":"Roxas","osmType":"node","osmId":2563567243}},{"type":"Feature","geometry":{"type":"Point","coordinates":[122.5691,10.66561]},"properties":{"name":"Bondulan Lighthouse","country":"Philippines","website":null,"opening_hours":null,"capacity":null,"phone":null,"address":"Jordan","osmType":"node","osmId":2573354756}},{"type":"Feature","geometry":{"type":"Point","coordinates":[123.86752,13.95438]},"properties":{"name":"Lahuy Lighthouse","country":"Philippines","website":null,"opening_hours":null,"capacity":null,"phone":null,"address":null,"osmType":"node","osmId":2603119773}},{"type":"Feature","geometry":{"type":"Point","coordinates":[122.67737,10.76644]},"properties":{"name":"Siete Pecados Lighthouse","country":"Philippines","website":null,"opening_hours":null,"capacity":null,"phone":null,"address":"Iloilo City","osmType":"node","osmId":2641814492}},{"type":"Feature","geometry":{"type":"Point","coordinates":[123.33796,11.20232]},"properties":{"name":"Baliguian Lighthouse","country":"Philippines","website":null,"opening_hours":null,"capacity":null,"phone":null,"address":null,"osmType":"node","osmId":2646262060}},{"type":"Feature","geometry":{"type":"Point","coordinates":[120.76607,12.8298]},"properties":{"name":"Sablayan Lighthouse","country":"Philippines","website":null,"opening_hours":null,"capacity":null,"phone":null,"address":null,"osmType":"node","osmId":2671173470}},{"type":"Feature","geometry":{"type":"Point","coordinates":[124.74336,11.89748]},"properties":{"name":"PPA Lighthouse","country":"Philippines","website":null,"opening_hours":null,"capacity":null,"phone":null,"address":null,"osmType":"node","osmId":2682277935}},{"type":"Feature","geometry":{"type":"Point","coordinates":[121.5718,15.75643]},"properties":{"name":"Baler Lighthouse","country":"Philippines","website":null,"opening_hours":null,"capacity":null,"phone":null,"address":null,"osmType":"node","osmId":2803741311}},{"type":"Feature","geometry":{"type":"Point","coordinates":[121.63081,15.75302]},"properties":{"name":"Zabali Lighthouse","country":"Philippines","website":null,"opening_hours":null,"capacity":null,"phone":null,"address":null,"osmType":"node","osmId":2804220956}},{"type":"Feature","geometry":{"type":"Point","coordinates":[122.51277,10.40388]},"properties":{"name":"Taklong Lighthouse","country":"Philippines","website":null,"opening_hours":null,"capacity":null,"phone":null,"address":null,"osmType":"node","osmId":3024129930}},{"type":"Feature","geometry":{"type":"Point","coordinates":[123.1526,11.45039]},"properties":{"name":"Estancia Lighthouse","country":"Philippines","website":null,"opening_hours":null,"capacity":null,"phone":null,"address":null,"osmType":"node","osmId":3096859015}},{"type":"Feature","geometry":{"type":"Point","coordinates":[121.98633,10.93198]},"properties":{"name":null,"country":"Philippines","website":null,"opening_hours":null,"capacity":null,"phone":null,"address":null,"osmType":"node","osmId":3140498142}},{"type":"Feature","geometry":{"type":"Point","coordinates":[125.71121,9.81052]},"properties":{"name":"Hinatuan North Lighthouse","country":"Philippines","website":null,"opening_hours":null,"capacity":null,"phone":null,"address":null,"osmType":"node","osmId":3215361303}},{"type":"Feature","geometry":{"type":"Point","coordinates":[125.44048,9.82312]},"properties":{"name":"Punta Bilar Lighthouse","country":"Philippines","website":null,"opening_hours":null,"capacity":null,"phone":null,"address":"Surigao","osmType":"node","osmId":3218331761}},{"type":"Feature","geometry":{"type":"Point","coordinates":[121.42992,15.366]},"properties":{"name":"Dingalan Lighthouse","country":"Philippines","website":null,"opening_hours":null,"capacity":null,"phone":null,"address":null,"osmType":"node","osmId":3221213514}},{"type":"Feature","geometry":{"type":"Point","coordinates":[123.54135,10.97881]},"properties":{"name":"Molocaboc Lighthouse","country":"Philippines","website":null,"opening_hours":null,"capacity":null,"phone":null,"address":null,"osmType":"node","osmId":3305438059}},{"type":"Feature","geometry":{"type":"Point","coordinates":[124.75059,10.24984]},"properties":{"name":"Canigao Lighthouse","country":"Philippines","website":null,"opening_hours":null,"capacity":null,"phone":null,"address":null,"osmType":"node","osmId":3392638201}},{"type":"Feature","geometry":{"type":"Point","coordinates":[124.68498,11.30254]},"properties":{"name":"Carigara Lighthouse","country":"Philippines","website":null,"opening_hours":null,"capacity":null,"phone":null,"address":null,"osmType":"node","osmId":3497015972}},{"type":"Feature","geometry":{"type":"Point","coordinates":[124.09673,12.53786]},"properties":{"name":null,"country":"Philippines","website":null,"opening_hours":null,"capacity":null,"phone":null,"address":null,"osmType":"node","osmId":3497723227}},{"type":"Feature","geometry":{"type":"Point","coordinates":[125.50158,9.78396]},"properties":{"name":"Surigao Lighthouse","country":"Philippines","website":null,"opening_hours":null,"capacity":null,"phone":null,"address":"Coastal Boulevard, Surigao City","osmType":"node","osmId":3640990711}},{"type":"Feature","geometry":{"type":"Point","coordinates":[123.34355,9.92286]},"properties":{"name":"Pescador Lighthouse","country":"Philippines","website":null,"opening_hours":null,"capacity":null,"phone":null,"address":"Moalboal","osmType":"node","osmId":3645761851}},{"type":"Feature","geometry":{"type":"Point","coordinates":[125.06128,9.96427]},"properties":{"name":"Limasawa North Lighthouse","country":"Philippines","website":null,"opening_hours":null,"capacity":null,"phone":null,"address":null,"osmType":"node","osmId":3687542615}},{"type":"Feature","geometry":{"type":"Point","coordinates":[121.6982,11.59661]},"properties":{"name":"Maniguin Lighthouse","country":"Philippines","website":null,"opening_hours":null,"capacity":null,"phone":null,"address":null,"osmType":"node","osmId":3708631957}},{"type":"Feature","geometry":{"type":"Point","coordinates":[124.37429,12.23725]},"properties":{"name":"Malaga Lighthouse","country":"Philippines","website":null,"opening_hours":null,"capacity":null,"phone":null,"address":"Calbayog","osmType":"node","osmId":3867189595}},{"type":"Feature","geometry":{"type":"Point","coordinates":[126.201,9.07492]},"properties":{"name":null,"country":"Philippines","website":null,"opening_hours":null,"capacity":null,"phone":null,"address":null,"osmType":"node","osmId":4062876729}},{"type":"Feature","geometry":{"type":"Point","coordinates":[120.02436,11.89224]},"properties":{"name":"Culion Lighthouse","country":"Philippines","website":null,"opening_hours":null,"capacity":null,"phone":null,"address":null,"osmType":"node","osmId":4073869830}},{"type":"Feature","geometry":{"type":"Point","coordinates":[123.72876,11.3051]},"properties":{"name":"Madridejos Lighthouse","country":"Philippines","website":null,"opening_hours":null,"capacity":null,"phone":null,"address":null,"osmType":"node","osmId":4259890978}},{"type":"Feature","geometry":{"type":"Point","coordinates":[122.5112,10.5819]},"properties":{"name":"Sinapsapan Lighthouse","country":"Philippines","website":null,"opening_hours":null,"capacity":null,"phone":null,"address":null,"osmType":"node","osmId":4339009900}},{"type":"Feature","geometry":{"type":"Point","coordinates":[124.85285,11.43919]},"properties":{"name":"Canauay Lighthouse","country":"Philippines","website":null,"opening_hours":null,"capacity":null,"phone":null,"address":null,"osmType":"node","osmId":4545826176}},{"type":"Feature","geometry":{"type":"Point","coordinates":[125.07436,9.89603]},"properties":{"name":"Limasawa South Lighthouse","country":"Philippines","website":null,"opening_hours":null,"capacity":null,"phone":null,"address":"6618 Limasawa","osmType":"node","osmId":4692246774}},{"type":"Feature","geometry":{"type":"Point","coordinates":[120.62037,14.08213]},"properties":{"name":"Nasugbu Lighthouse","country":"Philippines","website":null,"opening_hours":null,"capacity":null,"phone":null,"address":"Nasugbu","osmType":"node","osmId":4817591912}},{"type":"Feature","geometry":{"type":"Point","coordinates":[121.51113,19.24869]},"properties":{"name":"Nagudungan Lighthouse","country":"Philippines","website":null,"opening_hours":null,"capacity":null,"phone":null,"address":null,"osmType":"node","osmId":4941505928}},{"type":"Feature","geometry":{"type":"Point","coordinates":[123.58971,12.71712]},"properties":{"name":"San Miguel Lighthouse","country":"Philippines","website":null,"opening_hours":null,"capacity":null,"phone":null,"address":null,"osmType":"node","osmId":5007051656}},{"type":"Feature","geometry":{"type":"Point","coordinates":[122.45137,9.97532]},"properties":{"name":"Sojoton Lighthouse","country":"Philippines","website":null,"opening_hours":null,"capacity":null,"phone":null,"address":"Bacolod South Road","osmType":"node","osmId":5209810752}},{"type":"Feature","geometry":{"type":"Point","coordinates":[124.3252,13.55957]},"properties":{"name":"Bato Lighthouse","country":"Philippines","website":null,"opening_hours":null,"capacity":null,"phone":null,"address":null,"osmType":"node","osmId":5263805923}},{"type":"Feature","geometry":{"type":"Point","coordinates":[121.99097,16.02899]},"properties":{"name":"San Ildefonso Lighthouse","country":"Philippines","website":null,"opening_hours":null,"capacity":null,"phone":null,"address":null,"osmType":"node","osmId":5272817972}},{"type":"Feature","geometry":{"type":"Point","coordinates":[123.39059,9.4303]},"properties":{"name":"Sumilon Lighthouse","country":"Philippines","website":null,"opening_hours":null,"capacity":null,"phone":null,"address":null,"osmType":"node","osmId":5293589195}},{"type":"Feature","geometry":{"type":"Point","coordinates":[120.00388,16.19276]},"properties":{"name":"Lucap Lighthouse","country":"Philippines","website":null,"opening_hours":null,"capacity":null,"phone":null,"address":null,"osmType":"node","osmId":5492732929}},{"type":"Feature","geometry":{"type":"Point","coordinates":[126.06712,6.62832]},"properties":{"name":"Sigaboy Lighthouse","country":"Philippines","website":null,"opening_hours":null,"capacity":null,"phone":null,"address":null,"osmType":"node","osmId":5506472203}},{"type":"Feature","geometry":{"type":"Point","coordinates":[123.96819,13.72176]},"properties":{"name":"Colongcogong Lighthouse","country":"Philippines","website":null,"opening_hours":null,"capacity":null,"phone":null,"address":null,"osmType":"node","osmId":5606946708}},{"type":"Feature","geometry":{"type":"Point","coordinates":[123.81427,13.91347]},"properties":{"name":"Gata Lighthouse","country":"Philippines","website":null,"opening_hours":null,"capacity":null,"phone":null,"address":null,"osmType":"node","osmId":5902951420}},{"type":"Feature","geometry":{"type":"Point","coordinates":[126.09799,9.95463]},"properties":{"name":null,"country":"Philippines","website":null,"opening_hours":null,"capacity":null,"phone":null,"address":null,"osmType":"node","osmId":6053067343}},{"type":"Feature","geometry":{"type":"Point","coordinates":[122.62674,12.2837]},"properties":{"name":"Azagra Lighthouse","country":"Philippines","website":null,"opening_hours":null,"capacity":null,"phone":null,"address":null,"osmType":"node","osmId":6072307674}},{"type":"Feature","geometry":{"type":"Point","coordinates":[123.89171,11.30116]},"properties":{"name":"Guintacan Lighthouse","country":"Philippines","website":null,"opening_hours":null,"capacity":null,"phone":null,"address":null,"osmType":"node","osmId":6098052036}},{"type":"Feature","geometry":{"type":"Point","coordinates":[126.45674,6.99549]},"properties":{"name":null,"country":"Philippines","website":null,"opening_hours":null,"capacity":null,"phone":null,"address":null,"osmType":"node","osmId":6108842435}},{"type":"Feature","geometry":{"type":"Point","coordinates":[123.12067,11.84005]},"properties":{"name":"Jintotolo Lighthouse","country":"Philippines","website":null,"opening_hours":null,"capacity":null,"phone":null,"address":"Balud","osmType":"node","osmId":6185440320}},{"type":"Feature","geometry":{"type":"Point","coordinates":[122.04229,6.88445]},"properties":{"name":"Little Santa Cruz Lighthouse","country":"Philippines","website":null,"opening_hours":null,"capacity":null,"phone":null,"address":"Zamboanga","osmType":"node","osmId":6189581900}},{"type":"Feature","geometry":{"type":"Point","coordinates":[122.28555,12.47834]},"properties":{"name":"Apunan Lighthouse","country":"Philippines","website":null,"opening_hours":null,"capacity":null,"phone":null,"address":null,"osmType":"node","osmId":6292872285}},{"type":"Feature","geometry":{"type":"Point","coordinates":[126.20678,9.30615]},"properties":{"name":"Cauit Point Lighthouse","country":"Philippines","website":null,"opening_hours":null,"capacity":null,"phone":null,"address":null,"osmType":"node","osmId":6339582614}},{"type":"Feature","geometry":{"type":"Point","coordinates":[125.71297,6.10374]},"properties":{"name":"Calian Lighthouse","country":"Philippines","website":null,"opening_hours":null,"capacity":null,"phone":null,"address":null,"osmType":"node","osmId":6348979318}},{"type":"Feature","geometry":{"type":"Point","coordinates":[124.35913,10.27133]},"properties":{"name":"Bungan Lighthouse","country":"Philippines","website":null,"opening_hours":null,"capacity":null,"phone":null,"address":null,"osmType":"node","osmId":6572052185}},{"type":"Feature","geometry":{"type":"Point","coordinates":[124.72027,9.25373]},"properties":{"name":null,"country":"Philippines","website":null,"opening_hours":null,"capacity":null,"phone":null,"address":null,"osmType":"node","osmId":6717938473}},{"type":"Feature","geometry":{"type":"Point","coordinates":[123.68043,9.12176]},"properties":{"name":"Minalulan Point Lighthouse","country":"Philippines","website":null,"opening_hours":null,"capacity":null,"phone":null,"address":null,"osmType":"node","osmId":6742294794}},{"type":"Feature","geometry":{"type":"Point","coordinates":[124.17454,14.06476]},"properties":{"name":"Pandan Point Lighthouse","country":"Philippines","website":null,"opening_hours":null,"capacity":null,"phone":null,"address":null,"osmType":"node","osmId":6874943482}},{"type":"Feature","geometry":{"type":"Point","coordinates":[123.05252,14.12904]},"properties":{"name":"Canimo Lighthouse","country":"Philippines","website":null,"opening_hours":null,"capacity":null,"phone":null,"address":null,"osmType":"node","osmId":6874959338}},{"type":"Feature","geometry":{"type":"Point","coordinates":[122.66696,14.41105]},"properties":{"name":"Tailon Lighthouse","country":"Philippines","website":null,"opening_hours":null,"capacity":null,"phone":null,"address":null,"osmType":"node","osmId":6874966169}},{"type":"Feature","geometry":{"type":"Point","coordinates":[124.35418,13.94642]},"properties":{"name":"Lolong Point Lighthouse","country":"Philippines","website":null,"opening_hours":null,"capacity":null,"phone":null,"address":"Panganiban","osmType":"node","osmId":6874966334}},{"type":"Feature","geometry":{"type":"Point","coordinates":[123.21375,13.72882]},"properties":{"name":"Sabang Lighthouse","country":"Philippines","website":null,"opening_hours":null,"capacity":null,"phone":null,"address":null,"osmType":"node","osmId":6875000283}},{"type":"Feature","geometry":{"type":"Point","coordinates":[123.32342,13.81758]},"properties":{"name":null,"country":"Philippines","website":null,"opening_hours":null,"capacity":null,"phone":null,"address":null,"osmType":"node","osmId":6875015531}},{"type":"Feature","geometry":{"type":"Point","coordinates":[124.23534,13.58287]},"properties":{"name":null,"country":"Philippines","website":null,"opening_hours":null,"capacity":null,"phone":null,"address":null,"osmType":"node","osmId":6875053709}},{"type":"Feature","geometry":{"type":"Point","coordinates":[124.09704,13.59791]},"properties":{"name":"Calolbon Lighthouse","country":"Philippines","website":null,"opening_hours":null,"capacity":null,"phone":null,"address":null,"osmType":"node","osmId":6875065822}},{"type":"Feature","geometry":{"type":"Point","coordinates":[124.0261,13.6628]},"properties":{"name":"Sialat Lighthouse","country":"Philippines","website":null,"opening_hours":null,"capacity":null,"phone":null,"address":null,"osmType":"node","osmId":6875077551}},{"type":"Feature","geometry":{"type":"Point","coordinates":[123.53997,13.55668]},"properties":{"name":"Patitinan Lighthouse","country":"Philippines","website":null,"opening_hours":null,"capacity":null,"phone":null,"address":null,"osmType":"node","osmId":6875102096}},{"type":"Feature","geometry":{"type":"Point","coordinates":[123.57852,13.7208]},"properties":{"name":"Sabang Lighthouse","country":"Philippines","website":null,"opening_hours":null,"capacity":null,"phone":null,"address":null,"osmType":"node","osmId":6875105434}},{"type":"Feature","geometry":{"type":"Point","coordinates":[123.79416,13.29707]},"properties":{"name":"Bacacay Lighthouse","country":"Philippines","website":null,"opening_hours":null,"capacity":null,"phone":null,"address":null,"osmType":"node","osmId":6876474826}},{"type":"Feature","geometry":{"type":"Point","coordinates":[123.76557,13.40677]},"properties":{"name":"Rawis Lighthouse","country":"Philippines","website":null,"opening_hours":null,"capacity":null,"phone":null,"address":null,"osmType":"node","osmId":6876488384}},{"type":"Feature","geometry":{"type":"Point","coordinates":[124.14397,12.86757]},"properties":{"name":"Barcelona Lighthouse","country":"Philippines","website":null,"opening_hours":null,"capacity":null,"phone":null,"address":null,"osmType":"node","osmId":6877633979}},{"type":"Feature","geometry":{"type":"Point","coordinates":[124.12541,12.92394]},"properties":{"name":"Port Gubat Lighthouse","country":"Philippines","website":null,"opening_hours":null,"capacity":null,"phone":null,"address":null,"osmType":"node","osmId":6877647795}},{"type":"Feature","geometry":{"type":"Point","coordinates":[124.10649,12.64871]},"properties":{"name":"Magdalena Lighthouse","country":"Philippines","website":null,"opening_hours":null,"capacity":null,"phone":null,"address":null,"osmType":"node","osmId":6877657157}},{"type":"Feature","geometry":{"type":"Point","coordinates":[123.87321,12.66482]},"properties":{"name":"Bulan Lighthouse","country":"Philippines","website":null,"opening_hours":null,"capacity":null,"phone":null,"address":null,"osmType":"node","osmId":6879956335}},{"type":"Feature","geometry":{"type":"Point","coordinates":[123.79175,12.83226]},"properties":{"name":"Bagatao Lighthouse","country":"Philippines","website":null,"opening_hours":null,"capacity":null,"phone":null,"address":"Magallanes","osmType":"node","osmId":6879999145}},{"type":"Feature","geometry":{"type":"Point","coordinates":[123.77293,12.87528]},"properties":{"name":"Macalaya Lighthouse","country":"Philippines","website":null,"opening_hours":null,"capacity":null,"phone":null,"address":null,"osmType":"node","osmId":6880030839}},{"type":"Feature","geometry":{"type":"Point","coordinates":[124.00837,12.87522]},"properties":{"name":"Casiguran Lighthouse","country":"Philippines","website":null,"opening_hours":null,"capacity":null,"phone":null,"address":null,"osmType":"node","osmId":6880037676}},{"type":"Feature","geometry":{"type":"Point","coordinates":[123.79162,12.83609]},"properties":{"name":"Sorsogon Bay Lighthouse","country":"Philippines","website":null,"opening_hours":null,"capacity":null,"phone":null,"address":"Magallanes","osmType":"node","osmId":6880042167}},{"type":"Feature","geometry":{"type":"Point","coordinates":[123.32036,13.009]},"properties":{"name":"Cabarian Pt Lighthouse","country":"Philippines","website":null,"opening_hours":null,"capacity":null,"phone":null,"address":null,"osmType":"node","osmId":6883900742}},{"type":"Feature","geometry":{"type":"Point","coordinates":[122.58837,13.8852]},"properties":{"name":"Kilbay Lighthouse","country":"Philippines","website":null,"opening_hours":null,"capacity":null,"phone":null,"address":null,"osmType":"node","osmId":6884843752}},{"type":"Feature","geometry":{"type":"Point","coordinates":[123.37583,12.69988]},"properties":{"name":"Punta Aguja Lighthouse","country":"Philippines","website":null,"opening_hours":null,"capacity":null,"phone":null,"address":null,"osmType":"node","osmId":6884934155}},{"type":"Feature","geometry":{"type":"Point","coordinates":[124.53711,11.67266]},"properties":{"name":"Amambahag Lighthouse","country":"Philippines","website":null,"opening_hours":null,"capacity":null,"phone":null,"address":null,"osmType":"node","osmId":6887254415}},{"type":"Feature","geometry":{"type":"Point","coordinates":[123.71292,11.179]},"properties":{"name":"Bantayan Lighthouse","country":"Philippines","website":null,"opening_hours":null,"capacity":null,"phone":null,"address":null,"osmType":"node","osmId":6887436573}},{"type":"Feature","geometry":{"type":"Point","coordinates":[124.0632,11.30564]},"properties":{"name":"Chocolate Island Lighthouse","country":"Philippines","website":null,"opening_hours":null,"capacity":null,"phone":null,"address":null,"osmType":"node","osmId":6887557634}},{"type":"Feature","geometry":{"type":"Point","coordinates":[121.25333,14.50507]},"properties":{"name":"San Isidro Lighthouse","country":"Philippines","website":null,"opening_hours":null,"capacity":null,"phone":null,"address":null,"osmType":"node","osmId":6892138655}},{"type":"Feature","geometry":{"type":"Point","coordinates":[124.31529,10.72548]},"properties":{"name":"Tulang Lighthouse","country":"Philippines","website":null,"opening_hours":null,"capacity":null,"phone":null,"address":null,"osmType":"node","osmId":6896639078}},{"type":"Feature","geometry":{"type":"Point","coordinates":[123.45096,7.43454]},"properties":{"name":"Tabina Lighthouse","country":"Philippines","website":null,"opening_hours":null,"capacity":null,"phone":null,"address":null,"osmType":"node","osmId":6897804121}},{"type":"Feature","geometry":{"type":"Point","coordinates":[123.73269,12.57116]},"properties":{"name":"San Jacinto Lighthouse","country":"Philippines","website":null,"opening_hours":null,"capacity":null,"phone":null,"address":null,"osmType":"node","osmId":6899519900}},{"type":"Feature","geometry":{"type":"Point","coordinates":[123.37887,12.5416]},"properties":{"name":"Colorada Lighthouse","country":"Philippines","website":null,"opening_hours":null,"capacity":null,"phone":null,"address":null,"osmType":"node","osmId":6899835147}},{"type":"Feature","geometry":{"type":"Point","coordinates":[123.6098,12.37866]},"properties":{"name":"Masbate Lighthouse","country":"Philippines","website":null,"opening_hours":null,"capacity":null,"phone":null,"address":null,"osmType":"node","osmId":6899883666}},{"type":"Feature","geometry":{"type":"Point","coordinates":[124.05044,11.94869]},"properties":{"name":"Matayum Lighthouse","country":"Philippines","website":null,"opening_hours":null,"capacity":null,"phone":null,"address":null,"osmType":"node","osmId":6899915625}},{"type":"Feature","geometry":{"type":"Point","coordinates":[124.06803,11.72108]},"properties":{"name":"Caduruan Lighthouse","country":"Philippines","website":null,"opening_hours":null,"capacity":null,"phone":null,"address":null,"osmType":"node","osmId":6899923452}},{"type":"Feature","geometry":{"type":"Point","coordinates":[123.90639,11.81093]},"properties":{"name":"Guinawayan Lighthouse","country":"Philippines","website":null,"opening_hours":null,"capacity":null,"phone":null,"address":null,"osmType":"node","osmId":6899929451}},{"type":"Feature","geometry":{"type":"Point","coordinates":[123.54127,12.20586]},"properties":{"name":"Calasuche Lighthouse","country":"Philippines","website":null,"opening_hours":null,"capacity":null,"phone":null,"address":null,"osmType":"node","osmId":6899944042}},{"type":"Feature","geometry":{"type":"Point","coordinates":[123.22691,12.21968]},"properties":{"name":"Pagbulungan Lighthouse","country":"Philippines","website":null,"opening_hours":null,"capacity":null,"phone":null,"address":null,"osmType":"node","osmId":6900271844}},{"type":"Feature","geometry":{"type":"Point","coordinates":[123.16093,11.90834]},"properties":{"name":"Pulandata Lighthouse","country":"Philippines","website":null,"opening_hours":null,"capacity":null,"phone":null,"address":null,"osmType":"node","osmId":6900296769}},{"type":"Feature","geometry":{"type":"Point","coordinates":[123.23794,12.60031]},"properties":{"name":"Bugui Point Lighthouse","country":"Philippines","website":null,"opening_hours":null,"capacity":null,"phone":null,"address":"Aroroy","osmType":"node","osmId":6900311196}},{"type":"Feature","geometry":{"type":"Point","coordinates":[123.75732,8.59824]},"properties":{"name":"Polo Point Lighthouse","country":"Philippines","website":null,"opening_hours":null,"capacity":null,"phone":null,"address":null,"osmType":"node","osmId":6900337502}},{"type":"Feature","geometry":{"type":"Point","coordinates":[123.84686,8.13975]},"properties":{"name":"Ozamiz Lighthouse","country":"Philippines","website":null,"opening_hours":null,"capacity":null,"phone":null,"address":"Ozamiz","osmType":"node","osmId":6900345646}},{"type":"Feature","geometry":{"type":"Point","coordinates":[123.59841,8.66902]},"properties":{"name":"Baliangao Lighthouse","country":"Philippines","website":null,"opening_hours":null,"capacity":null,"phone":null,"address":null,"osmType":"node","osmId":6900356947}},{"type":"Feature","geometry":{"type":"Point","coordinates":[123.86299,8.32512]},"properties":{"name":"Tabo-o Point Lighthouse","country":"Philippines","website":null,"opening_hours":null,"capacity":null,"phone":null,"address":null,"osmType":"node","osmId":6900359014}},{"type":"Feature","geometry":{"type":"Point","coordinates":[123.8078,8.48624]},"properties":{"name":"Oroquieta Lighthouse","country":"Philippines","website":null,"opening_hours":null,"capacity":null,"phone":null,"address":"Oroquieta","osmType":"node","osmId":6900363256}},{"type":"Feature","geometry":{"type":"Point","coordinates":[125.4873,5.51499]},"properties":{"name":"Olanivan Lighthouse","country":"Philippines","website":null,"opening_hours":null,"capacity":null,"phone":null,"address":"8015 Sarangani","osmType":"node","osmId":6905118401}},{"type":"Feature","geometry":{"type":"Point","coordinates":[125.34999,5.36806]},"properties":{"name":"Manamil Lighthouse","country":"Philippines","website":null,"opening_hours":null,"capacity":null,"phone":null,"address":"8015 Sarangani","osmType":"node","osmId":6905118402}},{"type":"Feature","geometry":{"type":"Point","coordinates":[125.332,5.55511]},"properties":{"name":"Tinaca Lighthouse","country":"Philippines","website":null,"opening_hours":null,"capacity":null,"phone":null,"address":"9517 Glan","osmType":"node","osmId":6905118411}},{"type":"Feature","geometry":{"type":"Point","coordinates":[120.39253,12.22101]},"properties":{"name":"Bantac Lighthouse","country":"Philippines","website":null,"opening_hours":null,"capacity":null,"phone":null,"address":null,"osmType":"node","osmId":6911037629}},{"type":"Feature","geometry":{"type":"Point","coordinates":[124.79859,10.67403]},"properties":{"name":"Baybay Lighthouse","country":"Philippines","website":null,"opening_hours":null,"capacity":null,"phone":null,"address":null,"osmType":"node","osmId":6938639124}},{"type":"Feature","geometry":{"type":"Point","coordinates":[123.55702,9.10556]},"properties":{"name":"Calambaguio Lighthouse","country":"Philippines","website":null,"opening_hours":null,"capacity":null,"phone":null,"address":"San Juan","osmType":"node","osmId":6950258522}},{"type":"Feature","geometry":{"type":"Point","coordinates":[123.78809,8.05773]},"properties":{"name":"Tubod Lighthouse","country":"Philippines","website":null,"opening_hours":null,"capacity":null,"phone":null,"address":null,"osmType":"node","osmId":6965413438}},{"type":"Feature","geometry":{"type":"Point","coordinates":[124.23327,8.23241]},"properties":{"name":"Iligan Lighthouse","country":"Philippines","website":null,"opening_hours":null,"capacity":null,"phone":null,"address":"Iligan","osmType":"node","osmId":6965447305}},{"type":"Feature","geometry":{"type":"Point","coordinates":[124.25274,8.3355]},"properties":{"name":"Salimbal Lighthouse","country":"Philippines","website":null,"opening_hours":null,"capacity":null,"phone":null,"address":null,"osmType":"node","osmId":6965711607}},{"type":"Feature","geometry":{"type":"Point","coordinates":[124.47918,8.61905]},"properties":{"name":"Salauan Lighthouse","country":"Philippines","website":null,"opening_hours":null,"capacity":null,"phone":null,"address":null,"osmType":"node","osmId":6965734688}},{"type":"Feature","geometry":{"type":"Point","coordinates":[124.75135,8.52511]},"properties":{"name":null,"country":"Philippines","website":null,"opening_hours":null,"capacity":null,"phone":null,"address":null,"osmType":"node","osmId":6965753975}},{"type":"Feature","geometry":{"type":"Point","coordinates":[125.09981,8.82991]},"properties":{"name":"Gingoog Lighthouse","country":"Philippines","website":null,"opening_hours":null,"capacity":null,"phone":null,"address":"Gingoog","osmType":"node","osmId":6965767660}},{"type":"Feature","geometry":{"type":"Point","coordinates":[124.75504,8.71342]},"properties":{"name":"Balingasag Lighthouse","country":"Philippines","website":null,"opening_hours":null,"capacity":null,"phone":null,"address":null,"osmType":"node","osmId":6965768691}},{"type":"Feature","geometry":{"type":"Point","coordinates":[124.77252,8.9647]},"properties":{"name":"Dampias Lighthouse","country":"Philippines","website":null,"opening_hours":null,"capacity":null,"phone":null,"address":null,"osmType":"node","osmId":6965777322}},{"type":"Feature","geometry":{"type":"Point","coordinates":[125.17179,9.00472]},"properties":{"name":"Magsaysay Lighthouse","country":"Philippines","website":null,"opening_hours":null,"capacity":null,"phone":null,"address":null,"osmType":"node","osmId":6965815813}},{"type":"Feature","geometry":{"type":"Point","coordinates":[124.71642,9.25532]},"properties":{"name":"Mambajao Lighthouse","country":"Philippines","website":null,"opening_hours":null,"capacity":null,"phone":null,"address":"9100 Mambajao","osmType":"node","osmId":6965818267}},{"type":"Feature","geometry":{"type":"Point","coordinates":[123.43598,7.79392]},"properties":{"name":"Dao-Dao Lighthouse","country":"Philippines","website":null,"opening_hours":null,"capacity":null,"phone":null,"address":"Pagadian","osmType":"node","osmId":7074014894}},{"type":"Feature","geometry":{"type":"Point","coordinates":[123.57566,7.8496]},"properties":{"name":"Tukuran Lighthouse","country":"Philippines","website":null,"opening_hours":null,"capacity":null,"phone":null,"address":"7019 Tukuran","osmType":"node","osmId":7074074796}},{"type":"Feature","geometry":{"type":"Point","coordinates":[123.46789,7.64993]},"properties":{"name":"San Pablo Lighthouse","country":"Philippines","website":null,"opening_hours":null,"capacity":null,"phone":null,"address":null,"osmType":"node","osmId":7074089449}},{"type":"Feature","geometry":{"type":"Point","coordinates":[122.07426,6.90208]},"properties":{"name":null,"country":"Philippines","website":null,"opening_hours":null,"capacity":null,"phone":null,"address":null,"osmType":"node","osmId":7074186568}},{"type":"Feature","geometry":{"type":"Point","coordinates":[122.45506,13.89809]},"properties":{"name":"Guinayangan Lighthouse","country":"Philippines","website":null,"opening_hours":null,"capacity":null,"phone":null,"address":null,"osmType":"node","osmId":7074191476}},{"type":"Feature","geometry":{"type":"Point","coordinates":[123.16737,7.57915]},"properties":{"name":"Margosatubig Lighthouse","country":"Philippines","website":null,"opening_hours":null,"capacity":null,"phone":null,"address":null,"osmType":"node","osmId":7074204106}},{"type":"Feature","geometry":{"type":"Point","coordinates":[121.89916,7.11024]},"properties":{"name":"Batorampon Lighthouse","country":"Philippines","website":null,"opening_hours":null,"capacity":null,"phone":null,"address":"Zamboanga","osmType":"node","osmId":7074210248}},{"type":"Feature","geometry":{"type":"Point","coordinates":[122.16002,6.67155]},"properties":{"name":"Kulay bato Lighthouse","country":"Philippines","website":null,"opening_hours":null,"capacity":null,"phone":null,"address":null,"osmType":"node","osmId":7074321419}},{"type":"Feature","geometry":{"type":"Point","coordinates":[121.99067,6.74396]},"properties":{"name":"Malamaui Lighthouse","country":"Philippines","website":null,"opening_hours":null,"capacity":null,"phone":null,"address":"Isabela","osmType":"node","osmId":7074321420}},{"type":"Feature","geometry":{"type":"Point","coordinates":[121.69764,6.56618]},"properties":{"name":null,"country":"Philippines","website":null,"opening_hours":null,"capacity":null,"phone":null,"address":null,"osmType":"node","osmId":7074324477}},{"type":"Feature","geometry":{"type":"Point","coordinates":[122.22675,7.95818]},"properties":{"name":"Coronado Point Lighthouse","country":"Philippines","website":null,"opening_hours":null,"capacity":null,"phone":null,"address":null,"osmType":"node","osmId":7076470728}},{"type":"Feature","geometry":{"type":"Point","coordinates":[122.44448,8.11556]},"properties":{"name":"Murcielagos Lighthouse","country":"Philippines","website":null,"opening_hours":null,"capacity":null,"phone":null,"address":null,"osmType":"node","osmId":7076502007}},{"type":"Feature","geometry":{"type":"Point","coordinates":[122.69614,7.78196]},"properties":{"name":"Naga Lighthouse","country":"Philippines","website":null,"opening_hours":null,"capacity":null,"phone":null,"address":null,"osmType":"node","osmId":7076584584}},{"type":"Feature","geometry":{"type":"Point","coordinates":[122.66139,8.16111]},"properties":{"name":"Sindangan Lighthouse","country":"Philippines","website":null,"opening_hours":null,"capacity":null,"phone":null,"address":null,"osmType":"node","osmId":7076594700}},{"type":"Feature","geometry":{"type":"Point","coordinates":[122.15342,12.65971]},"properties":{"name":"Gorda Lighthouse","country":"Philippines","website":null,"opening_hours":null,"capacity":null,"phone":null,"address":null,"osmType":"node","osmId":7077985889}},{"type":"Feature","geometry":{"type":"Point","coordinates":[126.58795,5.55807]},"properties":{"name":"Menara Suar Miangas","country":"Philippines","website":null,"opening_hours":null,"capacity":null,"phone":null,"address":null,"osmType":"node","osmId":7078781454}},{"type":"Feature","geometry":{"type":"Point","coordinates":[125.43768,11.61513]},"properties":{"name":"Borongan Lighthouse","country":"Philippines","website":null,"opening_hours":null,"capacity":null,"phone":null,"address":null,"osmType":"node","osmId":7081859550}},{"type":"Feature","geometry":{"type":"Point","coordinates":[125.52402,9.12003]},"properties":{"name":"Cabadbaran Lighthouse","country":"Philippines","website":null,"opening_hours":null,"capacity":null,"phone":null,"address":null,"osmType":"node","osmId":7081867958}},{"type":"Feature","geometry":{"type":"Point","coordinates":[121.5693,12.09666]},"properties":{"name":"Sibolo Lighthouse","country":"Philippines","website":null,"opening_hours":null,"capacity":null,"phone":null,"address":"Caluya","osmType":"node","osmId":7081926945}},{"type":"Feature","geometry":{"type":"Point","coordinates":[124.65562,12.51522]},"properties":{"name":"Catarman Lighthouse","country":"Philippines","website":null,"opening_hours":null,"capacity":null,"phone":null,"address":null,"osmType":"node","osmId":7081932208}},{"type":"Feature","geometry":{"type":"Point","coordinates":[124.00943,9.59968]},"properties":{"name":"Loay Lighthouse","country":"Philippines","website":null,"opening_hours":null,"capacity":null,"phone":null,"address":null,"osmType":"node","osmId":7081954392}},{"type":"Feature","geometry":{"type":"Point","coordinates":[121.29521,11.85843]},"properties":{"name":"Malaqui Island Lighthouse","country":"Philippines","website":null,"opening_hours":null,"capacity":null,"phone":null,"address":null,"osmType":"node","osmId":7081976091}},{"type":"Feature","geometry":{"type":"Point","coordinates":[122.00852,14.10327]},"properties":{"name":"Alabat Lighthouse","country":"Philippines","website":null,"opening_hours":null,"capacity":null,"phone":null,"address":null,"osmType":"node","osmId":7082016954}},{"type":"Feature","geometry":{"type":"Point","coordinates":[121.44383,11.86704]},"properties":{"name":"Magtang Point Lighthouse","country":"Philippines","website":null,"opening_hours":null,"capacity":null,"phone":null,"address":null,"osmType":"node","osmId":7082030731}},{"type":"Feature","geometry":{"type":"Point","coordinates":[125.13857,10.27778]},"properties":{"name":"Saint Bernard Lighthouse","country":"Philippines","website":null,"opening_hours":null,"capacity":null,"phone":null,"address":null,"osmType":"node","osmId":7082077615}},{"type":"Feature","geometry":{"type":"Point","coordinates":[122.32242,13.59004]},"properties":{"name":"Catanuan Lighthouse","country":"Philippines","website":null,"opening_hours":null,"capacity":null,"phone":null,"address":null,"osmType":"node","osmId":7082097537}},{"type":"Feature","geometry":{"type":"Point","coordinates":[122.04276,14.97688]},"properties":{"name":"Buguitay Lighthouse","country":"Philippines","website":null,"opening_hours":null,"capacity":null,"phone":null,"address":null,"osmType":"node","osmId":7082194878}},{"type":"Feature","geometry":{"type":"Point","coordinates":[125.06804,8.84831]},"properties":{"name":"Gingoog Lighthouse","country":"Philippines","website":null,"opening_hours":null,"capacity":null,"phone":null,"address":"Gingoog","osmType":"node","osmId":7083364624}},{"type":"Feature","geometry":{"type":"Point","coordinates":[120.00902,14.91559]},"properties":{"name":"Capones Island Lighthouse","country":"Philippines","website":null,"opening_hours":null,"capacity":null,"phone":null,"address":"San Antonio","osmType":"node","osmId":7085398109}},{"type":"Feature","geometry":{"type":"Point","coordinates":[124.09801,11.51025]},"properties":{"name":"Carnaza Lighthouse","country":"Philippines","website":null,"opening_hours":null,"capacity":null,"phone":null,"address":"Daanbantayan","osmType":"node","osmId":7085584377}},{"type":"Feature","geometry":{"type":"Point","coordinates":[125.20822,9.09363]},"properties":{"name":"Diuata Lighthouse","country":"Philippines","website":null,"opening_hours":null,"capacity":null,"phone":null,"address":null,"osmType":"node","osmId":7085633995}},{"type":"Feature","geometry":{"type":"Point","coordinates":[125.50371,9.01094]},"properties":{"name":"Masao Lighthouse","country":"Philippines","website":null,"opening_hours":null,"capacity":null,"phone":null,"address":null,"osmType":"node","osmId":7085651347}},{"type":"Feature","geometry":{"type":"Point","coordinates":[125.33105,8.9835]},"properties":{"name":"Nasipit New Lighthouse","country":"Philippines","website":null,"opening_hours":null,"capacity":null,"phone":null,"address":null,"osmType":"node","osmId":7085652122}},{"type":"Feature","geometry":{"type":"Point","coordinates":[125.3319,8.98942]},"properties":{"name":"Nasipit Old Lighthouse","country":"Philippines","website":null,"opening_hours":null,"capacity":null,"phone":null,"address":null,"osmType":"node","osmId":7085652123}},{"type":"Feature","geometry":{"type":"Point","coordinates":[125.55985,9.99093]},"properties":{"name":"Kanhinaud Lighthouse","country":"Philippines","website":null,"opening_hours":null,"capacity":null,"phone":null,"address":null,"osmType":"node","osmId":7089905575}},{"type":"Feature","geometry":{"type":"Point","coordinates":[125.5793,10.36138]},"properties":{"name":"Loreto Lighthouse","country":"Philippines","website":null,"opening_hours":null,"capacity":null,"phone":null,"address":null,"osmType":"node","osmId":7089938221}},{"type":"Feature","geometry":{"type":"Point","coordinates":[125.61143,10.42343]},"properties":{"name":"Campintac Lighthouse","country":"Philippines","website":null,"opening_hours":null,"capacity":null,"phone":null,"address":"Padre Burgos, Loreto","osmType":"node","osmId":7089958490}},{"type":"Feature","geometry":{"type":"Point","coordinates":[122.49297,11.60894]},"properties":{"name":"Floripon Lighthouse","country":"Philippines","website":null,"opening_hours":null,"capacity":null,"phone":null,"address":null,"osmType":"node","osmId":7099336313}},{"type":"Feature","geometry":{"type":"Point","coordinates":[120.57696,14.17127]},"properties":{"name":null,"country":"Philippines","website":null,"opening_hours":null,"capacity":null,"phone":null,"address":null,"osmType":"node","osmId":7099402112}},{"type":"Feature","geometry":{"type":"Point","coordinates":[123.75971,9.88974]},"properties":{"name":"Cabilao Lighthouse","country":"Philippines","website":null,"opening_hours":null,"capacity":null,"phone":null,"address":null,"osmType":"node","osmId":7100361338}},{"type":"Feature","geometry":{"type":"Point","coordinates":[121.48974,12.74778]},"properties":{"name":"Bongabong Lighthouse","country":"Philippines","website":null,"opening_hours":null,"capacity":null,"phone":null,"address":null,"osmType":"node","osmId":7100477534}},{"type":"Feature","geometry":{"type":"Point","coordinates":[123.92197,9.49612]},"properties":{"name":"Pamilacan Lighthouse","country":"Philippines","website":null,"opening_hours":null,"capacity":null,"phone":null,"address":null,"osmType":"node","osmId":7100552171}},{"type":"Feature","geometry":{"type":"Point","coordinates":[125.46319,10.17458]},"properties":{"name":"Kanihaan Island Lighthouse","country":"Philippines","website":null,"opening_hours":null,"capacity":null,"phone":null,"address":null,"osmType":"node","osmId":7100587049}},{"type":"Feature","geometry":{"type":"Point","coordinates":[122.25866,11.79132]},"properties":{"name":"Apga Lighthouse","country":"Philippines","website":null,"opening_hours":null,"capacity":null,"phone":null,"address":null,"osmType":"node","osmId":7100651321}},{"type":"Feature","geometry":{"type":"Point","coordinates":[121.00983,12.20855]},"properties":{"name":"Ambulong Lighthouse","country":"Philippines","website":null,"opening_hours":null,"capacity":null,"phone":null,"address":"5100 San Jose","osmType":"node","osmId":7100847768}},{"type":"Feature","geometry":{"type":"Point","coordinates":[123.71482,13.40376]},"properties":{"name":"Malinao Lighthouse","country":"Philippines","website":null,"opening_hours":null,"capacity":null,"phone":null,"address":null,"osmType":"node","osmId":7100893147}},{"type":"Feature","geometry":{"type":"Point","coordinates":[121.84521,13.32472]},"properties":{"name":"Gasan Lighthouse","country":"Philippines","website":null,"opening_hours":null,"capacity":null,"phone":null,"address":null,"osmType":"node","osmId":7100896897}},{"type":"Feature","geometry":{"type":"Point","coordinates":[123.35817,11.63811]},"properties":{"name":"North Gigantes Lighthouse","country":"Philippines","website":null,"opening_hours":null,"capacity":null,"phone":null,"address":null,"osmType":"node","osmId":7101004352}},{"type":"Feature","geometry":{"type":"Point","coordinates":[122.78723,14.28602]},"properties":{"name":"Paracale Lighthouse","country":"Philippines","website":null,"opening_hours":null,"capacity":null,"phone":null,"address":null,"osmType":"node","osmId":7101022058}},{"type":"Feature","geometry":{"type":"Point","coordinates":[121.55661,13.11976]},"properties":{"name":"Dumali Point","country":"Philippines","website":null,"opening_hours":null,"capacity":null,"phone":null,"address":null,"osmType":"node","osmId":7101167976}},{"type":"Feature","geometry":{"type":"Point","coordinates":[124.36681,9.64918]},"properties":{"name":"Jagna Lighthouse","country":"Philippines","website":null,"opening_hours":null,"capacity":null,"phone":null,"address":null,"osmType":"node","osmId":7103617900}},{"type":"Feature","geometry":{"type":"Point","coordinates":[124.6757,5.95792]},"properties":{"name":"Buca Point","country":"Philippines","website":null,"opening_hours":null,"capacity":null,"phone":null,"address":"Kiamba","osmType":"node","osmId":7103828116}},{"type":"Feature","geometry":{"type":"Point","coordinates":[121.97904,15.04119]},"properties":{"name":"Bonifacio Lighthouse","country":"Philippines","website":null,"opening_hours":null,"capacity":null,"phone":null,"address":null,"osmType":"node","osmId":7103831561}},{"type":"Feature","geometry":{"type":"Point","coordinates":[123.19954,12.84416]},"properties":{"name":null,"country":"Philippines","website":null,"opening_hours":null,"capacity":null,"phone":null,"address":"Claveria","osmType":"node","osmId":7103842102}},{"type":"Feature","geometry":{"type":"Point","coordinates":[120.48124,18.0191]},"properties":{"name":"Arboledan Light","country":"Philippines","website":null,"opening_hours":null,"capacity":null,"phone":null,"address":null,"osmType":"node","osmId":7103907469}},{"type":"Feature","geometry":{"type":"Point","coordinates":[126.05654,9.3973]},"properties":{"name":"Ayoke Lighthouse","country":"Philippines","website":null,"opening_hours":null,"capacity":null,"phone":null,"address":"8317 Cantilan","osmType":"node","osmId":7103919180}},{"type":"Feature","geometry":{"type":"Point","coordinates":[120.97169,14.58247]},"properties":{"name":null,"country":"Philippines","website":null,"opening_hours":null,"capacity":null,"phone":null,"address":"Manila","osmType":"node","osmId":7103953713}},{"type":"Feature","geometry":{"type":"Point","coordinates":[123.59212,12.90555]},"properties":{"name":"Donsol Lighthouse","country":"Philippines","website":null,"opening_hours":null,"capacity":null,"phone":null,"address":null,"osmType":"node","osmId":7103958092}},{"type":"Feature","geometry":{"type":"Point","coordinates":[125.24954,10.25578]},"properties":{"name":"Anahawan Lighthouse","country":"Philippines","website":null,"opening_hours":null,"capacity":null,"phone":null,"address":null,"osmType":"node","osmId":7104112972}},{"type":"Feature","geometry":{"type":"Point","coordinates":[122.13624,12.56809]},"properties":{"name":"San Agustin Lighthouse","country":"Philippines","website":null,"opening_hours":null,"capacity":null,"phone":null,"address":null,"osmType":"node","osmId":7104128875}},{"type":"Feature","geometry":{"type":"Point","coordinates":[122.01381,12.10224]},"properties":{"name":"Cabalian Lighthouse","country":"Philippines","website":null,"opening_hours":null,"capacity":null,"phone":null,"address":null,"osmType":"node","osmId":7106068068}},{"type":"Feature","geometry":{"type":"Point","coordinates":[123.08469,13.97375]},"properties":{"name":"Canimo Lighthouse","country":"Philippines","website":null,"opening_hours":null,"capacity":null,"phone":null,"address":null,"osmType":"node","osmId":7106133550}},{"type":"Feature","geometry":{"type":"Point","coordinates":[122.49202,14.33293]},"properties":{"name":"Capalonga Lighthouse","country":"Philippines","website":null,"opening_hours":null,"capacity":null,"phone":null,"address":null,"osmType":"node","osmId":7106447203}},{"type":"Feature","geometry":{"type":"Point","coordinates":[123.8991,10.05604]},"properties":{"name":"Bagong Banua Lighthouse","country":"Philippines","website":null,"opening_hours":null,"capacity":null,"phone":null,"address":null,"osmType":"node","osmId":7106447484}},{"type":"Feature","geometry":{"type":"Point","coordinates":[120.02322,13.88838]},"properties":{"name":"Cabra Lighthouse","country":"Philippines","website":null,"opening_hours":null,"capacity":null,"phone":null,"address":"Lubang","osmType":"node","osmId":7106478542}},{"type":"Feature","geometry":{"type":"Point","coordinates":[122.26642,12.59485]},"properties":{"name":"Sabang Point Lighthouse","country":"Philippines","website":null,"opening_hours":null,"capacity":null,"phone":null,"address":null,"osmType":"node","osmId":7111599131}},{"type":"Feature","geometry":{"type":"Point","coordinates":[123.87282,13.22624]},"properties":{"name":"Port Sula Lighthouse","country":"Philippines","website":null,"opening_hours":null,"capacity":null,"phone":null,"address":null,"osmType":"node","osmId":7111765221}},{"type":"Feature","geometry":{"type":"Point","coordinates":[122.32151,12.54824]},"properties":{"name":"Calabago Point Lighthouse","country":"Philippines","website":null,"opening_hours":null,"capacity":null,"phone":null,"address":null,"osmType":"node","osmId":7111822348}},{"type":"Feature","geometry":{"type":"Point","coordinates":[121.72483,12.94476]},"properties":{"name":"Concepcion Lighthouse","country":"Philippines","website":null,"opening_hours":null,"capacity":null,"phone":null,"address":null,"osmType":"node","osmId":7115784023}},{"type":"Feature","geometry":{"type":"Point","coordinates":[124.7817,9.08409]},"properties":{"name":"Farol Lighthouse","country":"Philippines","website":null,"opening_hours":null,"capacity":null,"phone":null,"address":null,"osmType":"node","osmId":7115905601}},{"type":"Feature","geometry":{"type":"Point","coordinates":[121.11605,14.52059]},"properties":{"name":"Napindan Lighthouse","country":"Philippines","website":null,"opening_hours":null,"capacity":null,"phone":null,"address":null,"osmType":"node","osmId":7116011298}},{"type":"Feature","geometry":{"type":"Point","coordinates":[124.03619,6.55341]},"properties":{"name":"Lebak Point Lighthouse","country":"Philippines","website":null,"opening_hours":null,"capacity":null,"phone":null,"address":null,"osmType":"node","osmId":7116188319}},{"type":"Feature","geometry":{"type":"Point","coordinates":[121.42588,13.65812]},"properties":{"name":"Locoloco Lighthouse","country":"Philippines","website":null,"opening_hours":null,"capacity":null,"phone":null,"address":null,"osmType":"node","osmId":7290891175}},{"type":"Feature","geometry":{"type":"Point","coordinates":[122.18394,13.99655]},"properties":{"name":"Silangan Pass Lighthouse","country":"Philippines","website":null,"opening_hours":null,"capacity":null,"phone":null,"address":null,"osmType":"node","osmId":7291389008}},{"type":"Feature","geometry":{"type":"Point","coordinates":[126.21899,6.9493]},"properties":{"name":"Mati Lighthouse","country":"Philippines","website":null,"opening_hours":null,"capacity":null,"phone":null,"address":null,"osmType":"node","osmId":7579228714}},{"type":"Feature","geometry":{"type":"Point","coordinates":[122.96195,10.7663]},"properties":{"name":"Lagoon Lighthouse","country":"Philippines","website":null,"opening_hours":null,"capacity":null,"phone":null,"address":null,"osmType":"node","osmId":7804671425}},{"type":"Feature","geometry":{"type":"Point","coordinates":[121.92194,12.31907]},"properties":{"name":"Guinawayan Lighthouse","country":"Philippines","website":null,"opening_hours":null,"capacity":null,"phone":null,"address":null,"osmType":"node","osmId":7859486899}},{"type":"Feature","geometry":{"type":"Point","coordinates":[125.00804,11.15592]},"properties":{"name":"Palo Lighthouse","country":"Philippines","website":null,"opening_hours":null,"capacity":null,"phone":null,"address":null,"osmType":"node","osmId":7871215007}},{"type":"Feature","geometry":{"type":"Point","coordinates":[120.4193,13.62685]},"properties":{"name":"Golo Lighthouse","country":"Philippines","website":null,"opening_hours":null,"capacity":null,"phone":null,"address":null,"osmType":"node","osmId":8148018236}},{"type":"Feature","geometry":{"type":"Point","coordinates":[123.63504,10.37688]},"properties":{"name":"Toledo Lighthouse","country":"Philippines","website":null,"opening_hours":null,"capacity":null,"phone":null,"address":"Toledo","osmType":"node","osmId":8186252117}},{"type":"Feature","geometry":{"type":"Point","coordinates":[125.20245,5.8278]},"properties":{"name":"Glan Lighthouse","country":"Philippines","website":null,"opening_hours":null,"capacity":null,"phone":null,"address":null,"osmType":"node","osmId":8512309394}},{"type":"Feature","geometry":{"type":"Point","coordinates":[125.67779,5.96175]},"properties":{"name":"Baños Point Lighthouse","country":"Philippines","website":null,"opening_hours":null,"capacity":null,"phone":null,"address":null,"osmType":"node","osmId":8512395812}},{"type":"Feature","geometry":{"type":"Point","coordinates":[125.46575,10.46045]},"properties":{"name":"Kanhandon Point Lighthouse","country":"Philippines","website":null,"opening_hours":null,"capacity":null,"phone":null,"address":null,"osmType":"node","osmId":8699606854}},{"type":"Feature","geometry":{"type":"Point","coordinates":[124.28153,12.5014]},"properties":{"name":"Allen Lighthouse","country":"Philippines","website":null,"opening_hours":null,"capacity":null,"phone":null,"address":null,"osmType":"node","osmId":8767500003}},{"type":"Feature","geometry":{"type":"Point","coordinates":[124.44094,12.61111]},"properties":{"name":"San Antonio Lighthouse","country":"Philippines","website":null,"opening_hours":null,"capacity":null,"phone":null,"address":null,"osmType":"node","osmId":8767528182}},{"type":"Feature","geometry":{"type":"Point","coordinates":[124.48659,12.53328]},"properties":{"name":"Carangian Lighthouse","country":"Philippines","website":null,"opening_hours":null,"capacity":null,"phone":null,"address":null,"osmType":"node","osmId":8767635915}},{"type":"Feature","geometry":{"type":"Point","coordinates":[121.48967,12.86179]},"properties":{"name":"Bansud Lighthouse","country":"Philippines","website":null,"opening_hours":null,"capacity":null,"phone":null,"address":null,"osmType":"node","osmId":8767671948}},{"type":"Feature","geometry":{"type":"Point","coordinates":[124.59076,12.06567]},"properties":{"name":"Calbayog Lighthouse","country":"Philippines","website":null,"opening_hours":null,"capacity":null,"phone":null,"address":"Calbayog","osmType":"node","osmId":8770848458}},{"type":"Feature","geometry":{"type":"Point","coordinates":[125.61314,10.44143]},"properties":{"name":"Campintac Lighthouse","country":"Philippines","website":null,"opening_hours":null,"capacity":null,"phone":null,"address":null,"osmType":"node","osmId":8770858364}},{"type":"Feature","geometry":{"type":"Point","coordinates":[124.46607,11.89192]},"properties":{"name":"Santo Niño Lighthouse","country":"Philippines","website":null,"opening_hours":null,"capacity":null,"phone":null,"address":null,"osmType":"node","osmId":8771578341}},{"type":"Feature","geometry":{"type":"Point","coordinates":[124.8792,11.7794]},"properties":{"name":"Catbalogan Lighthouse","country":"Philippines","website":null,"opening_hours":null,"capacity":null,"phone":null,"address":null,"osmType":"node","osmId":8775011019}},{"type":"Feature","geometry":{"type":"Point","coordinates":[124.97272,11.66443]},"properties":{"name":"Uac-Uac Lighthouse","country":"Philippines","website":null,"opening_hours":null,"capacity":null,"phone":null,"address":null,"osmType":"node","osmId":8775739362}},{"type":"Feature","geometry":{"type":"Point","coordinates":[125.504,11.59753]},"properties":{"name":"Divinubo Lighthouse","country":"Philippines","website":null,"opening_hours":null,"capacity":null,"phone":null,"address":null,"osmType":"node","osmId":8778216304}},{"type":"Feature","geometry":{"type":"Point","coordinates":[125.06091,12.65828]},"properties":{"name":"Batag Lighthouse","country":"Philippines","website":null,"opening_hours":null,"capacity":null,"phone":null,"address":"Laoang","osmType":"node","osmId":8778252205}},{"type":"Feature","geometry":{"type":"Point","coordinates":[125.33678,12.40626]},"properties":{"name":"Sila Lighthouse","country":"Philippines","website":null,"opening_hours":null,"capacity":null,"phone":null,"address":null,"osmType":"node","osmId":8780120241}},{"type":"Feature","geometry":{"type":"Point","coordinates":[122.995,13.15872]},"properties":{"name":"San Pascual Lighthouse","country":"Philippines","website":null,"opening_hours":null,"capacity":null,"phone":null,"address":null,"osmType":"node","osmId":8780158371}},{"type":"Feature","geometry":{"type":"Point","coordinates":[125.40074,12.28889]},"properties":{"name":"Arteche Lighthouse","country":"Philippines","website":null,"opening_hours":null,"capacity":null,"phone":null,"address":null,"osmType":"node","osmId":8780162991}},{"type":"Feature","geometry":{"type":"Point","coordinates":[125.07659,11.25834]},"properties":{"name":"Jinamoc Lighthouse","country":"Philippines","website":null,"opening_hours":null,"capacity":null,"phone":null,"address":null,"osmType":"node","osmId":8793542718}},{"type":"Feature","geometry":{"type":"Point","coordinates":[124.69293,11.98176]},"properties":{"name":"Gandara River Lighthouse","country":"Philippines","website":null,"opening_hours":null,"capacity":null,"phone":null,"address":null,"osmType":"node","osmId":8796945473}},{"type":"Feature","geometry":{"type":"Point","coordinates":[124.23806,14.05743]},"properties":{"name":"Tabugoc Lighthouse","country":"Philippines","website":null,"opening_hours":null,"capacity":null,"phone":null,"address":null,"osmType":"node","osmId":8807974884}},{"type":"Feature","geometry":{"type":"Point","coordinates":[124.19623,13.03866]},"properties":{"name":"Diamante Lighthouse","country":"Philippines","website":null,"opening_hours":null,"capacity":null,"phone":null,"address":null,"osmType":"node","osmId":8808008538}},{"type":"Feature","geometry":{"type":"Point","coordinates":[123.88,12.94861]},"properties":{"name":"Castilla Lighthouse","country":"Philippines","website":null,"opening_hours":null,"capacity":null,"phone":null,"address":null,"osmType":"node","osmId":8808083354}},{"type":"Feature","geometry":{"type":"Point","coordinates":[121.28292,14.48343]},"properties":{"name":"Wawa Lighthouse","country":"Philippines","website":null,"opening_hours":null,"capacity":null,"phone":null,"address":null,"osmType":"node","osmId":8902504083}},{"type":"Feature","geometry":{"type":"Point","coordinates":[126.27502,6.78124]},"properties":{"name":"Pujada Lighthouse","country":"Philippines","website":null,"opening_hours":null,"capacity":null,"phone":null,"address":"Mati","osmType":"node","osmId":9027315439}},{"type":"Feature","geometry":{"type":"Point","coordinates":[126.34944,6.80276]},"properties":{"name":"Lawigan Point Lighthouse","country":"Philippines","website":null,"opening_hours":null,"capacity":null,"phone":null,"address":null,"osmType":"node","osmId":9027347734}},{"type":"Feature","geometry":{"type":"Point","coordinates":[126.60221,7.29382]},"properties":{"name":"Pusan Point Lighthouse","country":"Philippines","website":null,"opening_hours":null,"capacity":null,"phone":null,"address":null,"osmType":"node","osmId":9027393351}},{"type":"Feature","geometry":{"type":"Point","coordinates":[126.59447,7.44909]},"properties":{"name":"Baculin Lighthouse","country":"Philippines","website":null,"opening_hours":null,"capacity":null,"phone":null,"address":null,"osmType":"node","osmId":9027416445}},{"type":"Feature","geometry":{"type":"Point","coordinates":[126.45578,8.24439]},"properties":{"name":"Sanco Point Lighthouse","country":"Philippines","website":null,"opening_hours":null,"capacity":null,"phone":null,"address":null,"osmType":"node","osmId":9027493867}},{"type":"Feature","geometry":{"type":"Point","coordinates":[125.76325,6.89345]},"properties":{"name":"Paet Lighthouse","country":"Philippines","website":null,"opening_hours":null,"capacity":null,"phone":null,"address":"Samal","osmType":"node","osmId":9027502851}},{"type":"Feature","geometry":{"type":"Point","coordinates":[125.68765,6.90739]},"properties":{"name":"Talicud Lighthouse","country":"Philippines","website":null,"opening_hours":null,"capacity":null,"phone":null,"address":"Davao","osmType":"node","osmId":9027543106}},{"type":"Feature","geometry":{"type":"Point","coordinates":[123.4504,10.48719]},"properties":{"name":"Buoy Lighthouse","country":"Philippines","website":null,"opening_hours":null,"capacity":null,"phone":null,"address":null,"osmType":"node","osmId":9320672889}},{"type":"Feature","geometry":{"type":"Point","coordinates":[123.45086,10.48799]},"properties":{"name":"Buoy Lighthouse","country":"Philippines","website":null,"opening_hours":null,"capacity":null,"phone":null,"address":null,"osmType":"node","osmId":9320672890}},{"type":"Feature","geometry":{"type":"Point","coordinates":[123.45656,10.49997]},"properties":{"name":"Buoy Lighthouse","country":"Philippines","website":null,"opening_hours":null,"capacity":null,"phone":null,"address":null,"osmType":"node","osmId":9320672891}},{"type":"Feature","geometry":{"type":"Point","coordinates":[123.45771,10.502]},"properties":{"name":"Buoy Lighthouse","country":"Philippines","website":null,"opening_hours":null,"capacity":null,"phone":null,"address":null,"osmType":"node","osmId":9320672892}},{"type":"Feature","geometry":{"type":"Point","coordinates":[123.44961,10.4909]},"properties":{"name":"Buoy Lighthouse","country":"Philippines","website":null,"opening_hours":null,"capacity":null,"phone":null,"address":null,"osmType":"node","osmId":9320672893}},{"type":"Feature","geometry":{"type":"Point","coordinates":[123.44632,10.50333]},"properties":{"name":"San Carlos Lighthouse","country":"Philippines","website":null,"opening_hours":null,"capacity":null,"phone":null,"address":null,"osmType":"node","osmId":9320723185}},{"type":"Feature","geometry":{"type":"Point","coordinates":[121.56566,12.0911]},"properties":{"name":"Buoy Lighthouse","country":"Philippines","website":null,"opening_hours":null,"capacity":null,"phone":null,"address":null,"osmType":"node","osmId":9325206496}},{"type":"Feature","geometry":{"type":"Point","coordinates":[121.56429,12.08928]},"properties":{"name":"Buoy Lighthouse","country":"Philippines","website":null,"opening_hours":null,"capacity":null,"phone":null,"address":null,"osmType":"node","osmId":9325206497}},{"type":"Feature","geometry":{"type":"Point","coordinates":[121.84305,11.76371]},"properties":{"name":"Pucio Point Lighthouse","country":"Philippines","website":null,"opening_hours":null,"capacity":null,"phone":null,"address":null,"osmType":"node","osmId":9329633995}},{"type":"Feature","geometry":{"type":"Point","coordinates":[123.50987,8.65745]},"properties":{"name":"Sibutad Lighthouse","country":"Philippines","website":null,"opening_hours":null,"capacity":null,"phone":null,"address":"Dapitan","osmType":"node","osmId":9359966932}},{"type":"Feature","geometry":{"type":"Point","coordinates":[123.38117,8.63638]},"properties":{"name":"Pulauan Lighthouse","country":"Philippines","website":null,"opening_hours":null,"capacity":null,"phone":null,"address":"Dipolog","osmType":"node","osmId":9360038964}},{"type":"Feature","geometry":{"type":"Point","coordinates":[123.37992,8.72607]},"properties":{"name":"Tag-ulo Lighthouse","country":"Philippines","website":null,"opening_hours":null,"capacity":null,"phone":null,"address":"Dapitan","osmType":"node","osmId":9360071323}},{"type":"Feature","geometry":{"type":"Point","coordinates":[121.98893,12.4216]},"properties":{"name":"Poctoy Point Light","country":"Philippines","website":null,"opening_hours":null,"capacity":null,"phone":null,"address":null,"osmType":"node","osmId":9427664263}},{"type":"Feature","geometry":{"type":"Point","coordinates":[121.98185,12.24564]},"properties":{"name":"Looc Reef Lighthouse","country":"Philippines","website":null,"opening_hours":null,"capacity":null,"phone":null,"address":null,"osmType":"node","osmId":9427664264}},{"type":"Feature","geometry":{"type":"Point","coordinates":[122.00566,12.22469]},"properties":{"name":"Port Malbog Lighthouse","country":"Philippines","website":null,"opening_hours":null,"capacity":null,"phone":null,"address":null,"osmType":"node","osmId":9427664266}},{"type":"Feature","geometry":{"type":"Point","coordinates":[120.43574,16.956]},"properties":{"name":"Tagudin Lighthouse","country":"Philippines","website":null,"opening_hours":null,"capacity":null,"phone":null,"address":null,"osmType":"node","osmId":9427782660}},{"type":"Feature","geometry":{"type":"Point","coordinates":[120.42162,17.18784]},"properties":{"name":"Candon Light","country":"Philippines","website":null,"opening_hours":null,"capacity":null,"phone":null,"address":null,"osmType":"node","osmId":9427782661}},{"type":"Feature","geometry":{"type":"Point","coordinates":[120.42835,17.31547]},"properties":{"name":"Apatot Lighthouse","country":"Philippines","website":null,"opening_hours":null,"capacity":null,"phone":null,"address":null,"osmType":"node","osmId":9427782662}},{"type":"Feature","geometry":{"type":"Point","coordinates":[120.3695,17.53345]},"properties":{"name":"Pandan Lighthouse","country":"Philippines","website":null,"opening_hours":null,"capacity":null,"phone":null,"address":null,"osmType":"node","osmId":9427782663}},{"type":"Feature","geometry":{"type":"Point","coordinates":[120.35418,17.68888]},"properties":{"name":"Puropingit Lighthouse","country":"Philippines","website":null,"opening_hours":null,"capacity":null,"phone":null,"address":null,"osmType":"node","osmId":9427782664}},{"type":"Feature","geometry":{"type":"Point","coordinates":[120.42567,17.77225]},"properties":{"name":"Salomague Lighthouse","country":"Philippines","website":null,"opening_hours":null,"capacity":null,"phone":null,"address":null,"osmType":"node","osmId":9427782665}},{"type":"Feature","geometry":{"type":"Point","coordinates":[120.44948,17.8763]},"properties":{"name":"Cabangtalan Lighthouse","country":"Philippines","website":null,"opening_hours":null,"capacity":null,"phone":null,"address":null,"osmType":"node","osmId":9427782666}},{"type":"Feature","geometry":{"type":"Point","coordinates":[120.77851,18.60121]},"properties":{"name":"Dialao Light","country":"Philippines","website":null,"opening_hours":null,"capacity":null,"phone":null,"address":null,"osmType":"node","osmId":9427782667}},{"type":"Feature","geometry":{"type":"Point","coordinates":[120.01202,15.23388]},"properties":{"name":"Botolan Lighthouse","country":"Philippines","website":null,"opening_hours":null,"capacity":null,"phone":null,"address":null,"osmType":"node","osmId":9443853143}},{"type":"Feature","geometry":{"type":"Point","coordinates":[120.33547,16.82062]},"properties":{"name":"Darigayos Lighthouse","country":"Philippines","website":null,"opening_hours":null,"capacity":null,"phone":null,"address":null,"osmType":"node","osmId":9444153241}},{"type":"Feature","geometry":{"type":"Point","coordinates":[120.41723,17.2012]},"properties":{"name":"Candon Lighthouse","country":"Philippines","website":null,"opening_hours":null,"capacity":null,"phone":null,"address":null,"osmType":"node","osmId":9444456272}},{"type":"Feature","geometry":{"type":"Point","coordinates":[120.31597,16.61171]},"properties":{"name":"San Fernando Range Rear Lighthouse","country":"Philippines","website":null,"opening_hours":null,"capacity":null,"phone":null,"address":null,"osmType":"node","osmId":9446123108}},{"type":"Feature","geometry":{"type":"Point","coordinates":[120.34294,16.35383]},"properties":{"name":"Santa Rita Lighthouse","country":"Philippines","website":null,"opening_hours":null,"capacity":null,"phone":null,"address":null,"osmType":"node","osmId":9448817212}},{"type":"Feature","geometry":{"type":"Point","coordinates":[120.40376,16.24031]},"properties":{"name":"Damortis Lighthouse","country":"Philippines","website":null,"opening_hours":null,"capacity":null,"phone":null,"address":null,"osmType":"node","osmId":9448847753}},{"type":"Feature","geometry":{"type":"Point","coordinates":[120.33552,16.07283]},"properties":{"name":"Dagupan Lighthouse","country":"Philippines","website":null,"opening_hours":null,"capacity":null,"phone":null,"address":"Dagupan","osmType":"node","osmId":9449019009}},{"type":"Feature","geometry":{"type":"Point","coordinates":[120.26823,14.82376]},"properties":{"name":"Kalaklan Lighthouse","country":"Philippines","website":null,"opening_hours":null,"capacity":null,"phone":null,"address":"Olongapo","osmType":"node","osmId":9449350661}},{"type":"Feature","geometry":{"type":"Point","coordinates":[120.51985,14.42296]},"properties":{"name":"Sisiman Cove Lighthouse","country":"Philippines","website":null,"opening_hours":null,"capacity":null,"phone":null,"address":null,"osmType":"node","osmId":9451564246}},{"type":"Feature","geometry":{"type":"Point","coordinates":[120.48455,14.43134]},"properties":{"name":"Mariveles Lighthouse","country":"Philippines","website":null,"opening_hours":null,"capacity":null,"phone":null,"address":null,"osmType":"node","osmId":9451614041}},{"type":"Feature","geometry":{"type":"Point","coordinates":[120.6106,14.51334]},"properties":{"name":"Lamao Lighthouse","country":"Philippines","website":null,"opening_hours":null,"capacity":null,"phone":null,"address":null,"osmType":"node","osmId":9451694955}},{"type":"Feature","geometry":{"type":"Point","coordinates":[120.76306,14.43806]},"properties":{"name":"San Nicolas Shoal Lighthouse","country":"Philippines","website":null,"opening_hours":null,"capacity":null,"phone":null,"address":null,"osmType":"node","osmId":9451876816}},{"type":"Feature","geometry":{"type":"Point","coordinates":[120.74911,14.31937]},"properties":{"name":"Naic Lighthouse","country":"Philippines","website":null,"opening_hours":null,"capacity":null,"phone":null,"address":null,"osmType":"node","osmId":9451970774}},{"type":"Feature","geometry":{"type":"Point","coordinates":[121.55642,12.60494]},"properties":{"name":"Duyugan Lighthouse","country":"Philippines","website":null,"opening_hours":null,"capacity":null,"phone":null,"address":null,"osmType":"node","osmId":9453806330}},{"type":"Feature","geometry":{"type":"Point","coordinates":[124.2643,11.56811]},"properties":{"name":"Mabini Lighthouse","country":"Philippines","website":null,"opening_hours":null,"capacity":null,"phone":null,"address":null,"osmType":"node","osmId":9453811199}},{"type":"Feature","geometry":{"type":"Point","coordinates":[123.60826,9.8751]},"properties":{"name":"Argao Lighthouse","country":"Philippines","website":null,"opening_hours":null,"capacity":null,"phone":null,"address":null,"osmType":"node","osmId":9453866273}},{"type":"Feature","geometry":{"type":"Point","coordinates":[123.32557,10.958]},"properties":{"name":"Cadiz Lighthouse","country":"Philippines","website":null,"opening_hours":null,"capacity":null,"phone":null,"address":"Cadiz","osmType":"node","osmId":9453870616}},{"type":"Feature","geometry":{"type":"Point","coordinates":[124.27899,11.88948]},"properties":{"name":"Cabilison Lighthouse","country":"Philippines","website":null,"opening_hours":null,"capacity":null,"phone":null,"address":null,"osmType":"node","osmId":9453894961}},{"type":"Feature","geometry":{"type":"Point","coordinates":[121.49233,13.03328]},"properties":{"name":"Pinamalayan Lighthouse","country":"Philippines","website":null,"opening_hours":null,"capacity":null,"phone":null,"address":"5208","osmType":"node","osmId":9453934649}},{"type":"Feature","geometry":{"type":"Point","coordinates":[122.67453,9.38036]},"properties":{"name":"Cansilan Point Lighthouse","country":"Philippines","website":null,"opening_hours":null,"capacity":null,"phone":null,"address":null,"osmType":"node","osmId":9453955231}},{"type":"Feature","geometry":{"type":"Point","coordinates":[123.41761,8.85475]},"properties":{"name":"Selinog Lighthouse","country":"Philippines","website":null,"opening_hours":null,"capacity":null,"phone":null,"address":"Dapitan","osmType":"node","osmId":9453957210}},{"type":"Feature","geometry":{"type":"Point","coordinates":[125.17179,10.26316]},"properties":{"name":"San Juan Lighthouse","country":"Philippines","website":null,"opening_hours":null,"capacity":null,"phone":null,"address":null,"osmType":"node","osmId":9453971700}},{"type":"Feature","geometry":{"type":"Point","coordinates":[124.70412,10.24336]},"properties":{"name":"Adam Reef Lighthouse","country":"Philippines","website":null,"opening_hours":null,"capacity":null,"phone":null,"address":null,"osmType":"node","osmId":9453972476}},{"type":"Feature","geometry":{"type":"Point","coordinates":[122.95228,10.8932]},"properties":{"name":"Tomonton Point Lighthouse","country":"Philippines","website":null,"opening_hours":null,"capacity":null,"phone":null,"address":null,"osmType":"node","osmId":9453982320}},{"type":"Feature","geometry":{"type":"Point","coordinates":[125.19094,10.55547]},"properties":{"name":"Silago Lighthouse","country":"Philippines","website":null,"opening_hours":null,"capacity":null,"phone":null,"address":null,"osmType":"node","osmId":9453998955}},{"type":"Feature","geometry":{"type":"Point","coordinates":[122.23821,16.42599]},"properties":{"name":"Dilasag Lighthouse","country":"Philippines","website":null,"opening_hours":null,"capacity":null,"phone":null,"address":null,"osmType":"node","osmId":9454002210}},{"type":"Feature","geometry":{"type":"Point","coordinates":[126.44658,9.42657]},"properties":{"name":"San Vicente Lighthouse","country":"Philippines","website":null,"opening_hours":null,"capacity":null,"phone":null,"address":null,"osmType":"node","osmId":9454129933}},{"type":"Feature","geometry":{"type":"Point","coordinates":[120.78942,18.62766]},"properties":{"name":"Diliao Point Lighthouse","country":"Philippines","website":null,"opening_hours":null,"capacity":null,"phone":null,"address":null,"osmType":"node","osmId":9454165779}},{"type":"Feature","geometry":{"type":"Point","coordinates":[121.73142,14.69954]},"properties":{"name":"Dinahican Lighthouse","country":"Philippines","website":null,"opening_hours":null,"capacity":null,"phone":null,"address":null,"osmType":"node","osmId":9454242224}},{"type":"Feature","geometry":{"type":"Point","coordinates":[123.32102,10.95659]},"properties":{"name":"Hitalon Lighthouse","country":"Philippines","website":null,"opening_hours":null,"capacity":null,"phone":null,"address":null,"osmType":"node","osmId":9454242965}},{"type":"Feature","geometry":{"type":"Point","coordinates":[123.72568,8.60689]},"properties":{"name":"Plaridel Lighthouse","country":"Philippines","website":null,"opening_hours":null,"capacity":null,"phone":null,"address":null,"osmType":"node","osmId":9454304863}},{"type":"Feature","geometry":{"type":"Point","coordinates":[124.65115,14.17703]},"properties":{"name":"Panganiban Lighthouse","country":"Philippines","website":null,"opening_hours":null,"capacity":null,"phone":null,"address":null,"osmType":"node","osmId":9454403015}},{"type":"Feature","geometry":{"type":"Point","coordinates":[125.02515,8.91001]},"properties":{"name":"Medina Lighthouse","country":"Philippines","website":null,"opening_hours":null,"capacity":null,"phone":null,"address":null,"osmType":"node","osmId":9456814158}},{"type":"Feature","geometry":{"type":"Point","coordinates":[123.86934,8.29881]},"properties":{"name":"Sinonoc Lighthouse","country":"Philippines","website":null,"opening_hours":null,"capacity":null,"phone":null,"address":null,"osmType":"node","osmId":9456932927}},{"type":"Feature","geometry":{"type":"Point","coordinates":[122.33603,18.30971]},"properties":{"name":"Alegan Lighthouse","country":"Philippines","website":null,"opening_hours":null,"capacity":null,"phone":null,"address":null,"osmType":"node","osmId":9461770286}},{"type":"Feature","geometry":{"type":"Point","coordinates":[122.51029,17.14168]},"properties":{"name":"Palanan Lighthouse","country":"Philippines","website":null,"opening_hours":null,"capacity":null,"phone":null,"address":null,"osmType":"node","osmId":9461804210}},{"type":"Feature","geometry":{"type":"Point","coordinates":[124.68955,8.67177]},"properties":{"name":"Agutaya Reef Lighthouse","country":"Philippines","website":null,"opening_hours":null,"capacity":null,"phone":null,"address":null,"osmType":"node","osmId":9461868366}},{"type":"Feature","geometry":{"type":"Point","coordinates":[122.3807,9.70994]},"properties":{"name":"Matutindoc Point Lighthouse","country":"Philippines","website":null,"opening_hours":null,"capacity":null,"phone":null,"address":null,"osmType":"node","osmId":9461883621}},{"type":"Feature","geometry":{"type":"Point","coordinates":[124.79736,9.14637]},"properties":{"name":"Benoni Lighthouse","country":"Philippines","website":null,"opening_hours":null,"capacity":null,"phone":null,"address":null,"osmType":"node","osmId":9462088357}},{"type":"Feature","geometry":{"type":"Point","coordinates":[123.95755,9.95648]},"properties":{"name":"Tubigon № 1 Lighthouse","country":"Philippines","website":null,"opening_hours":null,"capacity":null,"phone":null,"address":null,"osmType":"node","osmId":9462090259}},{"type":"Feature","geometry":{"type":"Point","coordinates":[124.5948,9.76358]},"properties":{"name":"Talisay Lighthouse","country":"Philippines","website":null,"opening_hours":null,"capacity":null,"phone":null,"address":null,"osmType":"node","osmId":9462123722}},{"type":"Feature","geometry":{"type":"Point","coordinates":[124.57256,8.53338]},"properties":{"name":"Luyong Bonbon Lighthouse","country":"Philippines","website":null,"opening_hours":null,"capacity":null,"phone":null,"address":null,"osmType":"node","osmId":9464712106}},{"type":"Feature","geometry":{"type":"Point","coordinates":[125.52207,9.01596]},"properties":{"name":"Agusan River Lighthouse","country":"Philippines","website":null,"opening_hours":null,"capacity":null,"phone":null,"address":null,"osmType":"node","osmId":9464747225}},{"type":"Feature","geometry":{"type":"Point","coordinates":[126.3421,8.87828]},"properties":{"name":"Arangasa Lighthouse","country":"Philippines","website":null,"opening_hours":null,"capacity":null,"phone":null,"address":null,"osmType":"node","osmId":9465589945}},{"type":"Feature","geometry":{"type":"Point","coordinates":[126.09971,8.63411]},"properties":{"name":"Lianga Bay Lighthouse","country":"Philippines","website":null,"opening_hours":null,"capacity":null,"phone":null,"address":null,"osmType":"node","osmId":9467410025}},{"type":"Feature","geometry":{"type":"Point","coordinates":[126.19872,9.08606]},"properties":{"name":"Maboa Lighthouse","country":"Philippines","website":null,"opening_hours":null,"capacity":null,"phone":null,"address":null,"osmType":"node","osmId":9470189287}},{"type":"Feature","geometry":{"type":"Point","coordinates":[122.53781,9.50035]},"properties":{"name":"Taliptipun Lighthouse","country":"Philippines","website":null,"opening_hours":null,"capacity":null,"phone":null,"address":null,"osmType":"node","osmId":9473469978}},{"type":"Feature","geometry":{"type":"Point","coordinates":[125.96616,9.61688]},"properties":{"name":"Socorro Lighthouse","country":"Philippines","website":null,"opening_hours":null,"capacity":null,"phone":null,"address":null,"osmType":"node","osmId":9480264328}},{"type":"Feature","geometry":{"type":"Point","coordinates":[126.04032,9.75626]},"properties":{"name":"Dapa Lighthouse","country":"Philippines","website":null,"opening_hours":null,"capacity":null,"phone":null,"address":null,"osmType":"node","osmId":9482530832}},