{"type":"FeatureCollection","features":[{"type":"Feature","geometry":{"type":"Point","coordinates":[-155.77143,20.24626]},"properties":{"name":"Kauhola Point Lighthouse","country":"United States of America","website":null,"opening_hours":null,"capacity":null,"phone":null,"address":null,"ele":null,"osmType":"node","osmId":2090617507}},{"type":"Feature","geometry":{"type":"Point","coordinates":[-155.68185,18.91218]},"properties":{"name":"Ka Lae Lighthouse","country":"United States of America","website":null,"opening_hours":null,"capacity":null,"phone":null,"address":null,"ele":null,"osmType":"node","osmId":2253619208}},{"type":"Feature","geometry":{"type":"Point","coordinates":[-155.07084,19.72451]},"properties":{"name":"Waiākea Light","country":"United States of America","website":null,"opening_hours":null,"capacity":null,"phone":null,"address":null,"ele":null,"osmType":"node","osmId":2408527683}},{"type":"Feature","geometry":{"type":"Point","coordinates":[-156.96971,21.20955]},"properties":{"name":"Molokai Lighthouse","country":"United States of America","website":null,"opening_hours":null,"capacity":null,"phone":null,"address":null,"ele":null,"osmType":"node","osmId":4152381700}},{"type":"Feature","geometry":{"type":"Point","coordinates":[-160.09829,22.019]},"properties":{"name":null,"country":"United States of America","website":null,"opening_hours":null,"capacity":null,"phone":null,"address":null,"ele":null,"osmType":"node","osmId":4693005997}},{"type":"Feature","geometry":{"type":"Point","coordinates":[-158.10621,21.29639]},"properties":{"name":"Barbers Point Light","country":"United States of America","website":"https://www.lighthousefriends.com/light.asp?ID=142","opening_hours":null,"capacity":null,"phone":null,"address":null,"ele":null,"osmType":"node","osmId":4834669521}},{"type":"Feature","geometry":{"type":"Point","coordinates":[-156.9877,20.92909]},"properties":{"name":"Pōhakuloa Point Light","country":"United States of America","website":null,"opening_hours":null,"capacity":null,"phone":null,"address":null,"ele":null,"osmType":"node","osmId":5137610723}},{"type":"Feature","geometry":{"type":"Point","coordinates":[-156.66639,20.50236]},"properties":{"name":"Southernmost Point Light","country":"United States of America","website":null,"opening_hours":null,"capacity":null,"phone":null,"address":null,"ele":null,"osmType":"node","osmId":5458687881}},{"type":"Feature","geometry":{"type":"Point","coordinates":[-154.81089,19.51635]},"properties":{"name":"Cape Kumukahi Light","country":"United States of America","website":null,"opening_hours":null,"capacity":null,"phone":null,"address":null,"ele":null,"osmType":"node","osmId":5618528899}},{"type":"Feature","geometry":{"type":"Point","coordinates":[-156.67863,20.87218]},"properties":{"name":null,"country":"United States of America","website":null,"opening_hours":null,"capacity":null,"phone":null,"address":null,"ele":null,"osmType":"node","osmId":11113257730}},{"type":"Feature","geometry":{"type":"Point","coordinates":[-157.30515,21.09972]},"properties":{"name":null,"country":"United States of America","website":null,"opening_hours":null,"capacity":null,"phone":null,"address":null,"ele":null,"osmType":"node","osmId":11910976053}},{"type":"Feature","geometry":{"type":"Point","coordinates":[-156.99155,20.78303]},"properties":{"name":"Kaumalapa‘u Light","country":"United States of America","website":null,"opening_hours":null,"capacity":null,"phone":null,"address":null,"ele":null,"osmType":"node","osmId":11963331323}},{"type":"Feature","geometry":{"type":"Point","coordinates":[-155.9015,20.18033]},"properties":{"name":"Mahukona Lighthouse","country":"United States of America","website":null,"opening_hours":null,"capacity":null,"phone":null,"address":null,"ele":null,"osmType":"node","osmId":13840977494}},{"type":"Feature","geometry":{"type":"Point","coordinates":[-157.64976,21.3099]},"properties":{"name":"Makapu'u Point Lighthouse","country":"United States of America","website":null,"opening_hours":null,"capacity":null,"phone":null,"address":null,"ele":"60","osmType":"way","osmId":158322483}},{"type":"Feature","geometry":{"type":"Point","coordinates":[-159.33577,21.95498]},"properties":{"name":"Ninini Point Lighthouse","country":"United States of America","website":null,"opening_hours":null,"capacity":null,"phone":null,"address":null,"ele":null,"osmType":"way","osmId":288995436}},{"type":"Feature","geometry":{"type":"Point","coordinates":[-157.76349,21.46228]},"properties":{"name":"Pyramid Rock Lighthouse","country":"United States of America","website":null,"opening_hours":null,"capacity":null,"phone":null,"address":null,"ele":null,"osmType":"way","osmId":528698445}},{"type":"Feature","geometry":{"type":"Point","coordinates":[-156.59045,21.02904]},"properties":{"name":"Nakalele Point Lighthouse","country":"United States of America","website":null,"opening_hours":null,"capacity":null,"phone":null,"address":null,"ele":null,"osmType":"way","osmId":842306309}},{"type":"Feature","geometry":{"type":"Point","coordinates":[-159.402,22.2317]},"properties":{"name":"Kilauea Lighthouse","country":"United States of America","website":"https://www.fws.gov/refuge/kilauea-point","opening_hours":null,"capacity":null,"phone":null,"address":null,"ele":null,"osmType":"way","osmId":1252339534}},{"type":"Feature","geometry":{"type":"Point","coordinates":[-157.8095,21.25571]},"properties":{"name":"Diamond Head Lighthouse","country":"United States of America","website":"https://www.pacificarea.uscg.mil/Organizations/District-14/","opening_hours":null,"capacity":null,"phone":null,"address":"3399 Diamond Head Road, Honolulu","ele":"24","osmType":"way","osmId":1254582682}},{"type":"Feature","geometry":{"type":"Point","coordinates":[-95.07052,29.54668]},"properties":{"name":"South Shore Harbor Lightouse","country":"United States of America","website":null,"opening_hours":null,"capacity":null,"phone":null,"address":null,"osmType":"node","osmId":2603854687}},{"type":"Feature","geometry":{"type":"Point","coordinates":[-93.85017,29.7165]},"properties":{"name":"Sabine Pass Lighthouse","country":"United States of America","website":null,"opening_hours":null,"capacity":null,"phone":null,"address":null,"osmType":"node","osmId":4769653864}},{"type":"Feature","geometry":{"type":"Point","coordinates":[-95.01842,29.54039]},"properties":{"name":null,"country":"United States of America","website":null,"opening_hours":null,"capacity":null,"phone":null,"address":null,"osmType":"node","osmId":12037787715}},{"type":"Feature","geometry":{"type":"Point","coordinates":[-97.14721,25.95019]},"properties":{"name":"Faro Bagdad","country":"United States of America","website":null,"opening_hours":null,"capacity":null,"phone":null,"address":null,"osmType":"node","osmId":13050230188}},{"type":"Feature","geometry":{"type":"Point","coordinates":[-98.20973,26.12938]},"properties":{"name":null,"country":"United States of America","website":null,"opening_hours":null,"capacity":null,"phone":null,"address":null,"osmType":"node","osmId":13845390103}},{"type":"Feature","geometry":{"type":"Point","coordinates":[-94.76696,29.36679]},"properties":{"name":"Point Bolivar Lighthouse","country":"United States of America","website":null,"opening_hours":null,"capacity":null,"phone":null,"address":null,"osmType":"way","osmId":413733917}},{"type":"Feature","geometry":{"type":"Point","coordinates":[-96.42407,28.33789]},"properties":{"name":"Matagorda Island lighthouse","country":"United States of America","website":null,"opening_hours":null,"capacity":null,"phone":null,"address":null,"osmType":"way","osmId":427136840}},{"type":"Feature","geometry":{"type":"Point","coordinates":[-97.20754,26.07776]},"properties":{"name":"Port Isabel Lighthouse","country":"United States of America","website":null,"opening_hours":"Mo-Su 09:00-18:00","capacity":null,"phone":null,"address":null,"osmType":"way","osmId":664956704}},{"type":"Feature","geometry":{"type":"Point","coordinates":[-96.61724,28.63689]},"properties":{"name":"Halfmoon Reef Light","country":"United States of America","website":null,"opening_hours":null,"capacity":null,"phone":null,"address":null,"osmType":"way","osmId":697199918}},{"type":"Feature","geometry":{"type":"Point","coordinates":[-97.0564,27.86416]},"properties":{"name":"Lydia Ann Lighthouse","country":"United States of America","website":null,"opening_hours":null,"capacity":null,"phone":null,"address":null,"osmType":"way","osmId":760436819}},{"type":"Feature","geometry":{"type":"Point","coordinates":[-91.21629,29.69429]},"properties":{"name":"Southwest Reef Light","country":"United States of America","website":"https://cajuncoast.com/?attractions=southwest-reef-lighthouse","opening_hours":null,"capacity":null,"phone":null,"address":null,"osmType":"way","osmId":1426470703}},{"type":"Feature","geometry":{"type":"Point","coordinates":[-89.39202,28.97184]},"properties":{"name":"Southwest Pass Lighthouse","country":"United States of America","website":null,"opening_hours":null,"capacity":null,"phone":null,"address":null,"ele":"0","osmType":"node","osmId":367131989}},{"type":"Feature","geometry":{"type":"Point","coordinates":[-82.26086,26.71733]},"properties":{"name":"Boca Grande Lighthouse","country":"United States of America","website":"https://www.bips.org/port-boca-grande-lighthouse","opening_hours":null,"capacity":null,"phone":null,"address":null,"ele":null,"osmType":"node","osmId":1584745056}},{"type":"Feature","geometry":{"type":"Point","coordinates":[-82.26345,26.74204]},"properties":{"name":"Gasparilla Island Lighthouse","country":"United States of America","website":null,"opening_hours":null,"capacity":null,"phone":null,"address":null,"ele":null,"osmType":"node","osmId":1584749762}},{"type":"Feature","geometry":{"type":"Point","coordinates":[-82.01424,26.45294]},"properties":{"name":"Sanibel Lighthouse","country":"United States of America","website":null,"opening_hours":null,"capacity":null,"phone":null,"address":"110 Periwinkle Way, 33957 Sanibel","ele":null,"osmType":"node","osmId":1729001655}},{"type":"Feature","geometry":{"type":"Point","coordinates":[-82.84467,28.16702]},"properties":{"name":"Anclote Key Lighthouse","country":"United States of America","website":null,"opening_hours":null,"capacity":null,"phone":null,"address":null,"ele":null,"osmType":"node","osmId":3205595797}},{"type":"Feature","geometry":{"type":"Point","coordinates":[-82.73953,27.61611]},"properties":{"name":"Egmont Channel Rear Range Light","country":"United States of America","website":null,"opening_hours":null,"capacity":null,"phone":null,"address":null,"ele":null,"osmType":"node","osmId":3376364920}},{"type":"Feature","geometry":{"type":"Point","coordinates":[-84.70072,29.82723]},"properties":{"name":"Crooked River Lighthouse","country":"United States of America","website":null,"opening_hours":null,"capacity":null,"phone":null,"address":null,"ele":null,"osmType":"node","osmId":4742858863}},{"type":"Feature","geometry":{"type":"Point","coordinates":[-81.11084,24.62784]},"properties":{"name":"Sombrero Key Light","country":"United States of America","website":null,"opening_hours":null,"capacity":null,"phone":null,"address":null,"ele":null,"osmType":"node","osmId":4885833174}},{"type":"Feature","geometry":{"type":"Point","coordinates":[-80.61885,24.8518]},"properties":{"name":"Alligator Reef Light","country":"United States of America","website":null,"opening_hours":null,"capacity":null,"phone":null,"address":null,"ele":null,"osmType":"node","osmId":5077477871}},{"type":"Feature","geometry":{"type":"Point","coordinates":[-81.40527,28.28862]},"properties":{"name":null,"country":"United States of America","website":null,"opening_hours":null,"capacity":null,"phone":null,"address":null,"ele":null,"osmType":"node","osmId":5328460352}},{"type":"Feature","geometry":{"type":"Point","coordinates":[-81.51944,24.52513]},"properties":{"name":"American Shoal Light","country":"United States of America","website":null,"opening_hours":null,"capacity":null,"phone":null,"address":null,"ele":null,"osmType":"node","osmId":6525332698}},{"type":"Feature","geometry":{"type":"Point","coordinates":[-80.09668,25.59061]},"properties":{"name":"Fowey Rocks Lighthouse","country":"United States of America","website":null,"opening_hours":null,"capacity":null,"phone":null,"address":null,"ele":null,"osmType":"node","osmId":6813442868}},{"type":"Feature","geometry":{"type":"Point","coordinates":[-81.10518,24.71157]},"properties":{"name":"Faro Blanko","country":"United States of America","website":"https://www.faroblancoresort.com/","opening_hours":null,"capacity":null,"phone":null,"address":null,"ele":null,"osmType":"node","osmId":7735019394}},{"type":"Feature","geometry":{"type":"Point","coordinates":[-80.08075,26.25917]},"properties":{"name":"Hillsboro Inlet Light","country":"United States of America","website":null,"opening_hours":null,"capacity":null,"phone":null,"address":"907 Hillsboro Mile, 33062 Hillsboro Beach","ele":"00","osmType":"node","osmId":9141453841}},{"type":"Feature","geometry":{"type":"Point","coordinates":[-82.7542,27.80933]},"properties":{"name":null,"country":"United States of America","website":null,"opening_hours":null,"capacity":null,"phone":null,"address":null,"ele":null,"osmType":"node","osmId":9448992068}},{"type":"Feature","geometry":{"type":"Point","coordinates":[-81.78417,26.10175]},"properties":{"name":"Hamilton Harbor Lighthouse","country":"United States of America","website":null,"opening_hours":null,"capacity":null,"phone":null,"address":null,"ele":null,"osmType":"node","osmId":10320045882}},{"type":"Feature","geometry":{"type":"Point","coordinates":[-81.38298,25.86952]},"properties":{"name":"Everglades Isle Lighthouse","country":"United States of America","website":null,"opening_hours":null,"capacity":null,"phone":null,"address":null,"ele":null,"osmType":"node","osmId":10321914983}},{"type":"Feature","geometry":{"type":"Point","coordinates":[-82.76463,27.61359]},"properties":{"name":"Egmont Channel Front Range Light","country":"United States of America","website":null,"opening_hours":null,"capacity":null,"phone":null,"address":null,"ele":null,"osmType":"node","osmId":10324341866}},{"type":"Feature","geometry":{"type":"Point","coordinates":[-80.12047,25.89913]},"properties":{"name":null,"country":"United States of America","website":null,"opening_hours":null,"capacity":null,"phone":null,"address":null,"ele":null,"osmType":"node","osmId":13189070391}},{"type":"Feature","geometry":{"type":"Point","coordinates":[-81.53468,28.37006]},"properties":{"name":null,"country":"United States of America","website":null,"opening_hours":null,"capacity":null,"phone":null,"address":"1444 Old Turtle Pond Road, 32830 Lake Buena Vista","ele":null,"osmType":"way","osmId":236358146}},{"type":"Feature","geometry":{"type":"Point","coordinates":[-80.15596,25.66659]},"properties":{"name":"Cape Florida Light","country":"United States of America","website":null,"opening_hours":null,"capacity":null,"phone":null,"address":"33149 Key Biscayne","ele":null,"osmType":"way","osmId":305533830}},{"type":"Feature","geometry":{"type":"Point","coordinates":[-80.92806,29.08063]},"properties":{"name":"Ponce Inlet Lighthouse","country":"United States of America","website":"https://www.ponceinlet.org/","opening_hours":null,"capacity":null,"phone":"+1-386-761-1821","address":"4931 South Peninsula Drive, 32127 Ponce Inlet","ele":null,"osmType":"way","osmId":318263235}},{"type":"Feature","geometry":{"type":"Point","coordinates":[-84.8627,29.66303]},"properties":{"name":"Cape Saint George Light","country":"United States of America","website":"https://www.stgeorgelight.org/","opening_hours":null,"capacity":null,"phone":"+1-850-927-7745","address":"2B Gulf Beach Drive East, 32328 Saint George Island","ele":null,"osmType":"way","osmId":319963532}},{"type":"Feature","geometry":{"type":"Point","coordinates":[-81.46338,28.4118]},"properties":{"name":null,"country":"United States of America","website":null,"opening_hours":null,"capacity":null,"phone":null,"address":null,"ele":null,"osmType":"way","osmId":332207666}},{"type":"Feature","geometry":{"type":"Point","coordinates":[-80.17607,25.52472]},"properties":{"name":"Boca Chita Lighthouse","country":"United States of America","website":null,"opening_hours":null,"capacity":null,"phone":null,"address":null,"ele":null,"osmType":"way","osmId":435747110}},{"type":"Feature","geometry":{"type":"Point","coordinates":[-82.71789,27.65466]},"properties":{"name":"Tierra Verde Lighthouse","country":"United States of America","website":null,"opening_hours":null,"capacity":null,"phone":null,"address":null,"ele":null,"osmType":"way","osmId":522540102}},{"type":"Feature","geometry":{"type":"Point","coordinates":[-81.36071,25.80932]},"properties":{"name":"Chokoloskee Lighthouse","country":"United States of America","website":null,"opening_hours":null,"capacity":null,"phone":null,"address":null,"ele":null,"osmType":"way","osmId":522996131}},{"type":"Feature","geometry":{"type":"Point","coordinates":[-80.08204,26.94861]},"properties":{"name":"Jupiter Inlet Light","country":"United States of America","website":"https://www.jupiterlighthouse.org","opening_hours":null,"capacity":null,"phone":null,"address":null,"ele":null,"osmType":"way","osmId":552218629}},{"type":"Feature","geometry":{"type":"Point","coordinates":[-82.76067,27.60081]},"properties":{"name":"Egmont Key Light","country":"United States of America","website":null,"opening_hours":null,"capacity":null,"phone":null,"address":null,"ele":null,"osmType":"way","osmId":609692805}},{"type":"Feature","geometry":{"type":"Point","coordinates":[-85.30649,29.81321]},"properties":{"name":null,"country":"United States of America","website":null,"opening_hours":null,"capacity":null,"phone":null,"address":null,"ele":null,"osmType":"way","osmId":627569702}},{"type":"Feature","geometry":{"type":"Point","coordinates":[-79.29652,25.57399]},"properties":{"name":"Gun Cay Lighthouse","country":"United States of America","website":null,"opening_hours":null,"capacity":null,"phone":null,"address":null,"ele":null,"osmType":"way","osmId":757100782}},{"type":"Feature","geometry":{"type":"Point","coordinates":[-81.54246,28.36343]},"properties":{"name":null,"country":"United States of America","website":null,"opening_hours":null,"capacity":null,"phone":null,"address":null,"ele":null,"osmType":"way","osmId":946665075}},{"type":"Feature","geometry":{"type":"Point","coordinates":[-89.16687,29.01527]},"properties":{"name":"South Pass Light","country":"United States of America","website":null,"opening_hours":null,"capacity":null,"phone":null,"address":null,"ele":null,"osmType":"way","osmId":1018424988}},{"type":"Feature","geometry":{"type":"Point","coordinates":[-81.28854,29.88545]},"properties":{"name":"Saint Augustine Lighthouse","country":"United States of America","website":null,"opening_hours":null,"capacity":null,"phone":null,"address":null,"ele":null,"osmType":"way","osmId":1135361496}},{"type":"Feature","geometry":{"type":"Point","coordinates":[-80.54345,28.46036]},"properties":{"name":"Cape Canaveral Lighthouse","country":"United States of America","website":null,"opening_hours":null,"capacity":null,"phone":null,"address":null,"ele":null,"osmType":"way","osmId":1219644136}},{"type":"Feature","geometry":{"type":"Point","coordinates":[-80.13988,25.76038]},"properties":{"name":null,"country":"United States of America","website":null,"opening_hours":null,"capacity":null,"phone":null,"address":null,"ele":null,"osmType":"way","osmId":1340670124}},{"type":"Feature","geometry":{"type":"Point","coordinates":[-164.74461,54.39461]},"properties":{"name":"Scotch Cap Light","country":"United States of America","website":"https://www.gi.alaska.edu/alaska-science-forum/demise-scotch-cap-lighthouse","opening_hours":null,"capacity":null,"phone":null,"address":null,"ele":null,"osmType":"way","osmId":540625695}},{"type":"Feature","geometry":{"type":"Point","coordinates":[-160.53614,55.23911]},"properties":{"name":null,"country":"United States of America","website":null,"opening_hours":null,"capacity":null,"phone":null,"address":null,"ele":null,"osmType":"way","osmId":557740329}},{"type":"Feature","geometry":{"type":"Point","coordinates":[-122.97138,48.78903]},"properties":{"name":"Patos Island Light","country":"United States of America","website":"https://lighthousefriends.com/light.asp?ID=103","opening_hours":null,"capacity":null,"phone":null,"address":null,"ele":null,"osmType":"node","osmId":255577387}},{"type":"Feature","geometry":{"type":"Point","coordinates":[-122.39389,37.18174]},"properties":{"name":"Pigeon Point Light","country":"United States of America","website":null,"opening_hours":null,"capacity":null,"phone":null,"address":null,"ele":null,"osmType":"node","osmId":316739839}},{"type":"Feature","geometry":{"type":"Point","coordinates":[-124.14869,41.05726]},"properties":{"name":"Memorial Lighthouse","country":"United States of America","website":null,"opening_hours":null,"capacity":null,"phone":null,"address":null,"ele":"30","osmType":"node","osmId":368174433}},{"type":"Feature","geometry":{"type":"Point","coordinates":[-122.00218,36.9607]},"properties":{"name":"Santa Cruz West Breakwater Light","country":"United States of America","website":null,"opening_hours":null,"capacity":null,"phone":null,"address":null,"ele":null,"osmType":"node","osmId":400699453}},{"type":"Feature","geometry":{"type":"Point","coordinates":[-124.42428,43.12389]},"properties":{"name":"Coquille River Lighthouse","country":"United States of America","website":"https://lighthousefriends.com/light.asp?ID=127","opening_hours":null,"capacity":null,"phone":null,"address":null,"ele":"00","osmType":"node","osmId":410871527}},{"type":"Feature","geometry":{"type":"Point","coordinates":[-122.51931,37.5365]},"properties":{"name":"Point Montara Light Station","country":"United States of America","website":"http://www.parks.ca.gov/?page_id=534","opening_hours":null,"capacity":null,"phone":null,"address":null,"ele":null,"osmType":"node","osmId":430366105}},{"type":"Feature","geometry":{"type":"Point","coordinates":[-122.02674,36.95149]},"properties":{"name":"Santa Cruz Lighthouse","country":"United States of America","website":null,"opening_hours":null,"capacity":null,"phone":null,"address":null,"ele":null,"osmType":"node","osmId":479492430}},{"type":"Feature","geometry":{"type":"Point","coordinates":[-122.57474,47.32658]},"properties":{"name":"Gig Harbor Lighthouse","country":"United States of America","website":null,"opening_hours":null,"capacity":null,"phone":null,"address":null,"ele":null,"osmType":"node","osmId":483347164}},{"type":"Feature","geometry":{"type":"Point","coordinates":[-124.35021,40.24939]},"properties":{"name":"Punta Gorda Light House","country":"United States of America","website":null,"opening_hours":null,"capacity":null,"phone":null,"address":null,"ele":null,"osmType":"node","osmId":492004161}},{"type":"Feature","geometry":{"type":"Point","coordinates":[-120.4708,34.4487]},"properties":{"name":"Point Conception Light","country":"United States of America","website":null,"opening_hours":null,"capacity":null,"phone":null,"address":null,"ele":null,"osmType":"node","osmId":538659370}},{"type":"Feature","geometry":{"type":"Point","coordinates":[-120.76082,35.16035]},"properties":{"name":"Point San Luis Lighthouse","country":"United States of America","website":"http://www.sanluislighthouse.org/","opening_hours":null,"capacity":null,"phone":"+1-855-533-7843","address":"Avila Beach","ele":null,"osmType":"node","osmId":589004457}},{"type":"Feature","geometry":{"type":"Point","coordinates":[-121.93374,36.63339]},"properties":{"name":"Point Pinos Lighthouse","country":"United States of America","website":null,"opening_hours":null,"capacity":null,"phone":null,"address":null,"ele":null,"osmType":"node","osmId":664318913}},{"type":"Feature","geometry":{"type":"Point","coordinates":[-124.11077,44.29053]},"properties":{"name":"Cleft of the Rock Light","country":"United States of America","website":null,"opening_hours":null,"capacity":null,"phone":null,"address":null,"ele":null,"osmType":"node","osmId":843503695}},{"type":"Feature","geometry":{"type":"Point","coordinates":[-124.26276,42.04174]},"properties":{"name":"Pelican Bay Light","country":"United States of America","website":null,"opening_hours":null,"capacity":null,"phone":null,"address":null,"ele":null,"osmType":"node","osmId":843511989}},{"type":"Feature","geometry":{"type":"Point","coordinates":[-122.47834,37.82548]},"properties":{"name":"Lime Point","country":"United States of America","website":null,"opening_hours":null,"capacity":null,"phone":null,"address":null,"ele":null,"osmType":"node","osmId":1243877573}},{"type":"Feature","geometry":{"type":"Point","coordinates":[-122.96335,48.45065]},"properties":{"name":"Cattle Point Lighthouse","country":"United States of America","website":null,"opening_hours":null,"capacity":null,"phone":null,"address":null,"ele":null,"osmType":"node","osmId":1365113431}},{"type":"Feature","geometry":{"type":"Point","coordinates":[-123.18401,48.73564]},"properties":{"name":null,"country":"United States of America","website":null,"opening_hours":null,"capacity":null,"phone":null,"address":null,"ele":null,"osmType":"node","osmId":1676346032}},{"type":"Feature","geometry":{"type":"Point","coordinates":[-123.04586,48.78304]},"properties":{"name":"East Point Lighthouse","country":"United States of America","website":null,"opening_hours":null,"capacity":null,"phone":null,"address":null,"ele":null,"osmType":"node","osmId":1682615970}},{"type":"Feature","geometry":{"type":"Point","coordinates":[-124.42421,42.40256]},"properties":{"name":null,"country":"United States of America","website":null,"opening_hours":null,"capacity":null,"phone":null,"address":null,"ele":null,"osmType":"node","osmId":2309095617}},{"type":"Feature","geometry":{"type":"Point","coordinates":[-122.90726,47.14052]},"properties":{"name":"Dofflemyer Point Light","country":"United States of America","website":null,"opening_hours":null,"capacity":null,"phone":null,"address":null,"ele":null,"osmType":"node","osmId":2488889132}},{"type":"Feature","geometry":{"type":"Point","coordinates":[-122.33569,37.10784]},"properties":{"name":"Lighthouse station (abandoned)","country":"United States of America","website":null,"opening_hours":null,"capacity":null,"phone":null,"address":null,"ele":null,"osmType":"node","osmId":3020977864}},{"type":"Feature","geometry":{"type":"Point","coordinates":[-122.89423,48.42208]},"properties":{"name":"Iceberg Point Aid to Navigation","country":"United States of America","website":null,"opening_hours":null,"capacity":null,"phone":null,"address":null,"ele":null,"osmType":"node","osmId":3798905686}},{"type":"Feature","geometry":{"type":"Point","coordinates":[-124.15144,41.05191]},"properties":{"name":null,"country":"United States of America","website":null,"opening_hours":null,"capacity":null,"phone":null,"address":null,"ele":null,"osmType":"node","osmId":4110698441}},{"type":"Feature","geometry":{"type":"Point","coordinates":[-123.11032,48.18176]},"properties":{"name":"New Dungeness Lighthouse","country":"United States of America","website":null,"opening_hours":null,"capacity":null,"phone":null,"address":null,"ele":null,"osmType":"node","osmId":5237331900}},{"type":"Feature","geometry":{"type":"Point","coordinates":[-122.56998,47.91926]},"properties":{"name":"Skunk Bay Lighthouse","country":"United States of America","website":null,"opening_hours":null,"capacity":null,"phone":null,"address":null,"ele":null,"osmType":"node","osmId":5237331907}},{"type":"Feature","geometry":{"type":"Point","coordinates":[-136.38471,58.15369]},"properties":{"name":null,"country":"United States of America","website":null,"opening_hours":null,"capacity":null,"phone":null,"address":null,"ele":null,"osmType":"node","osmId":6362505858}},{"type":"Feature","geometry":{"type":"Point","coordinates":[-131.88119,55.44596]},"properties":{"name":"Guard Island Light","country":"United States of America","website":null,"opening_hours":null,"capacity":null,"phone":null,"address":null,"ele":null,"osmType":"node","osmId":6525178540}},{"type":"Feature","geometry":{"type":"Point","coordinates":[-134.92328,58.54626]},"properties":{"name":"Sentinel Island Light","country":"United States of America","website":null,"opening_hours":null,"capacity":null,"phone":null,"address":null,"ele":null,"osmType":"node","osmId":6525189150}},{"type":"Feature","geometry":{"type":"Point","coordinates":[-132.69764,56.05668]},"properties":{"name":"Lincoln Rock Light","country":"United States of America","website":null,"opening_hours":null,"capacity":null,"phone":null,"address":null,"ele":null,"osmType":"node","osmId":6525289319}},{"type":"Feature","geometry":{"type":"Point","coordinates":[-130.93394,54.80293]},"properties":{"name":"Tree Point Light","country":"United States of America","website":null,"opening_hours":null,"capacity":null,"phone":null,"address":null,"ele":null,"osmType":"node","osmId":6525308150}},{"type":"Feature","geometry":{"type":"Point","coordinates":[-134.95502,58.41141]},"properties":{"name":"Point Retreat Light","country":"United States of America","website":null,"opening_hours":null,"capacity":null,"phone":null,"address":null,"ele":null,"osmType":"node","osmId":6525317591}},{"type":"Feature","geometry":{"type":"Point","coordinates":[-121.50965,45.71665]},"properties":{"name":null,"country":"United States of America","website":null,"opening_hours":null,"capacity":null,"phone":null,"address":null,"ele":null,"osmType":"node","osmId":7117747567}},{"type":"Feature","geometry":{"type":"Point","coordinates":[-121.89529,45.67096]},"properties":{"name":null,"country":"United States of America","website":null,"opening_hours":null,"capacity":null,"phone":null,"address":null,"ele":null,"osmType":"node","osmId":7149965566}},{"type":"Feature","geometry":{"type":"Point","coordinates":[-121.92329,45.64668]},"properties":{"name":null,"country":"United States of America","website":null,"opening_hours":null,"capacity":null,"phone":null,"address":null,"ele":null,"osmType":"node","osmId":7149965568}},{"type":"Feature","geometry":{"type":"Point","coordinates":[-121.9258,45.64522]},"properties":{"name":null,"country":"United States of America","website":null,"opening_hours":null,"capacity":null,"phone":null,"address":null,"ele":null,"osmType":"node","osmId":7149965569}},{"type":"Feature","geometry":{"type":"Point","coordinates":[-132.95982,56.27633]},"properties":{"name":null,"country":"United States of America","website":null,"opening_hours":null,"capacity":null,"phone":null,"address":null,"ele":null,"osmType":"node","osmId":7672182962}},{"type":"Feature","geometry":{"type":"Point","coordinates":[-131.18263,55.09901]},"properties":{"name":"Mary Island Light Station","country":"United States of America","website":null,"opening_hours":null,"capacity":null,"phone":null,"address":null,"ele":null,"osmType":"node","osmId":7681583560}},{"type":"Feature","geometry":{"type":"Point","coordinates":[-122.57823,48.64363]},"properties":{"name":"Eliza Rocks Junction Light","country":"United States of America","website":null,"opening_hours":null,"capacity":null,"phone":null,"address":null,"ele":null,"osmType":"node","osmId":10876704548}},{"type":"Feature","geometry":{"type":"Point","coordinates":[-122.03884,38.23991]},"properties":{"name":"Suisun City Lighthouse","country":"United States of America","website":null,"opening_hours":null,"capacity":null,"phone":null,"address":null,"ele":null,"osmType":"node","osmId":11084854096}},{"type":"Feature","geometry":{"type":"Point","coordinates":[-131.81284,55.4787]},"properties":{"name":null,"country":"United States of America","website":null,"opening_hours":null,"capacity":null,"phone":null,"address":null,"ele":null,"osmType":"node","osmId":12074751658}},{"type":"Feature","geometry":{"type":"Point","coordinates":[-133.27684,56.38589]},"properties":{"name":"The Eye Opener Light","country":"United States of America","website":null,"opening_hours":null,"capacity":null,"phone":null,"address":null,"ele":null,"osmType":"node","osmId":12152906124}},{"type":"Feature","geometry":{"type":"Point","coordinates":[-122.43357,37.96316]},"properties":{"name":"East Brother Light Station","country":"United States of America","website":null,"opening_hours":null,"capacity":null,"phone":null,"address":null,"ele":null,"osmType":"way","osmId":35406270}},{"type":"Feature","geometry":{"type":"Point","coordinates":[-122.75475,48.14417]},"properties":{"name":"Point Wilson Lighthouse","country":"United States of America","website":null,"opening_hours":null,"capacity":null,"phone":null,"address":null,"ele":null,"osmType":"way","osmId":54928227}},{"type":"Feature","geometry":{"type":"Point","coordinates":[-123.11033,48.18181]},"properties":{"name":"New Dungeness","country":"United States of America","website":null,"opening_hours":null,"capacity":null,"phone":null,"address":null,"ele":null,"osmType":"way","osmId":60827471}},{"type":"Feature","geometry":{"type":"Point","coordinates":[-122.42229,37.82625]},"properties":{"name":"Alcatraz Island Lighthouse","country":"United States of America","website":null,"opening_hours":null,"capacity":null,"phone":null,"address":null,"ele":null,"osmType":"way","osmId":99202294}},{"type":"Feature","geometry":{"type":"Point","coordinates":[-122.43573,47.66197]},"properties":{"name":"West Point Light","country":"United States of America","website":"https://www.seattle.gov/parks/allparks/discovery-park","opening_hours":null,"capacity":null,"phone":null,"address":null,"ele":null,"osmType":"way","osmId":101657263}},{"type":"Feature","geometry":{"type":"Point","coordinates":[-123.82616,39.34858]},"properties":{"name":"Point Cabrillo Light Station","country":"United States of America","website":"https://www.pointcabrillo.org/","opening_hours":null,"capacity":null,"phone":null,"address":null,"ele":null,"osmType":"way","osmId":134243077}},{"type":"Feature","geometry":{"type":"Point","coordinates":[-124.20311,41.74409]},"properties":{"name":"Crescent City Lighthouse","country":"United States of America","website":"https://delnortehistory.org/battery-point-lighthouse/","opening_hours":null,"capacity":null,"phone":null,"address":"577 H Street, 95531 Crescent City","ele":"15","osmType":"way","osmId":168232963}},{"type":"Feature","geometry":{"type":"Point","coordinates":[-120.76079,35.16039]},"properties":{"name":"Port San Luis Lighthouse","country":"United States of America","website":null,"opening_hours":null,"capacity":null,"phone":null,"address":null,"ele":null,"osmType":"way","osmId":202499342}},{"type":"Feature","geometry":{"type":"Point","coordinates":[-122.42062,47.57626]},"properties":{"name":"Alki Point Lighthouse","country":"United States of America","website":"http://wow.uscgaux.info/content.php?unit=130-02&category=alki-pt-lighthouse#.U-GE1vldW0I","opening_hours":null,"capacity":null,"phone":null,"address":"3201 Alki Avenue Southwest, 98116 Seattle","ele":null,"osmType":"way","osmId":223489881}},{"type":"Feature","geometry":{"type":"Point","coordinates":[-123.00183,37.69922]},"properties":{"name":"Farallon Island","country":"United States of America","website":null,"opening_hours":null,"capacity":null,"phone":null,"address":null,"ele":null,"osmType":"way","osmId":232321619}},{"type":"Feature","geometry":{"type":"Point","coordinates":[-124.73672,48.39158]},"properties":{"name":"Cape Flattery Lighthouse","country":"United States of America","website":null,"opening_hours":null,"capacity":null,"phone":null,"address":null,"ele":null,"osmType":"way","osmId":234494769}},{"type":"Feature","geometry":{"type":"Point","coordinates":[-121.9017,36.30633]},"properties":{"name":"Point Sur Lighthouse","country":"United States of America","website":"http://www.pointsur.org/","opening_hours":null,"capacity":null,"phone":null,"address":null,"ele":null,"osmType":"way","osmId":255390082}},{"type":"Feature","geometry":{"type":"Point","coordinates":[-123.02315,37.99562]},"properties":{"name":"Point Reyes Lighthouse","country":"United States of America","website":"https://www.nps.gov/places/point-reyes-lighthouse.htm","opening_hours":null,"capacity":null,"phone":null,"address":null,"ele":null,"osmType":"way","osmId":274178212}},{"type":"Feature","geometry":{"type":"Point","coordinates":[-122.36228,37.80731]},"properties":{"name":"Yerba Buena Island Lighthouse","country":"United States of America","website":null,"opening_hours":null,"capacity":null,"phone":null,"address":null,"ele":null,"osmType":"way","osmId":291189057}},{"type":"Feature","geometry":{"type":"Point","coordinates":[-123.53145,48.29793]},"properties":{"name":"Race Rocks Lighthouse","country":"United States of America","website":null,"opening_hours":null,"capacity":null,"phone":null,"address":null,"ele":null,"osmType":"way","osmId":325826139}},{"type":"Feature","geometry":{"type":"Point","coordinates":[-122.68791,48.1016]},"properties":{"name":"Marrowstone Point Lighthouse","country":"United States of America","website":null,"opening_hours":null,"capacity":null,"phone":null,"address":null,"ele":null,"osmType":"way","osmId":337464053}},{"type":"Feature","geometry":{"type":"Point","coordinates":[-121.28436,35.66564]},"properties":{"name":"Piedras Blancas Light Station","country":"United States of America","website":"https://www.blm.gov/ca/st/en/fo/bakersfield/Programs/pbls.html","opening_hours":null,"capacity":null,"phone":null,"address":null,"ele":null,"osmType":"way","osmId":348453134}},{"type":"Feature","geometry":{"type":"Point","coordinates":[-124.01905,45.93731]},"properties":{"name":"Tillamook Rock Light","country":"United States of America","website":null,"opening_hours":null,"capacity":null,"phone":null,"address":null,"ele":null,"osmType":"way","osmId":369576085}},{"type":"Feature","geometry":{"type":"Point","coordinates":[-122.49676,48.75383]},"properties":{"name":null,"country":"United States of America","website":null,"opening_hours":null,"capacity":null,"phone":null,"address":null,"ele":null,"osmType":"way","osmId":376626011}},{"type":"Feature","geometry":{"type":"Point","coordinates":[-122.78841,45.8486]},"properties":{"name":"Warrior Rock Lighthouse","country":"United States of America","website":null,"opening_hours":null,"capacity":null,"phone":null,"address":null,"ele":null,"osmType":"way","osmId":403789406}},{"type":"Feature","geometry":{"type":"Point","coordinates":[-124.07942,44.67673]},"properties":{"name":"Yaquina Head Light","country":"United States of America","website":null,"opening_hours":null,"capacity":null,"phone":null,"address":null,"ele":null,"osmType":"way","osmId":405043496}},{"type":"Feature","geometry":{"type":"Point","coordinates":[-124.37528,43.34125]},"properties":{"name":"Cape Arago Lighthouse","country":"United States of America","website":null,"opening_hours":null,"capacity":null,"phone":null,"address":null,"ele":null,"osmType":"way","osmId":405049966}},{"type":"Feature","geometry":{"type":"Point","coordinates":[-124.12821,44.13743]},"properties":{"name":"Heceta Head Light","country":"United States of America","website":null,"opening_hours":null,"capacity":null,"phone":null,"address":null,"ele":null,"osmType":"way","osmId":405049972}},{"type":"Feature","geometry":{"type":"Point","coordinates":[-124.06302,44.62416]},"properties":{"name":"Yaquina Bay Light","country":"United States of America","website":null,"opening_hours":null,"capacity":null,"phone":null,"address":null,"ele":null,"osmType":"way","osmId":405053767}},{"type":"Feature","geometry":{"type":"Point","coordinates":[-124.05209,46.27584]},"properties":{"name":"Cape Disappointment Lighthouse","country":"United States of America","website":null,"opening_hours":null,"capacity":null,"phone":null,"address":null,"ele":null,"osmType":"way","osmId":414755757}},{"type":"Feature","geometry":{"type":"Point","coordinates":[-124.07796,46.29891]},"properties":{"name":"North Head Lighthouse","country":"United States of America","website":"https://parks.wa.gov/find-park/state-parks/cape-disappointment-state-park/north-head-lighthouse-wedding-day-use-site","opening_hours":null,"capacity":null,"phone":null,"address":null,"ele":null,"osmType":"way","osmId":414755766}},{"type":"Feature","geometry":{"type":"Point","coordinates":[-122.43807,48.61046]},"properties":{"name":null,"country":"United States of America","website":null,"opening_hours":null,"capacity":null,"phone":null,"address":null,"ele":null,"osmType":"way","osmId":421214200}},{"type":"Feature","geometry":{"type":"Point","coordinates":[-122.52954,37.8156]},"properties":{"name":"Point Bonita Lighthouse","country":"United States of America","website":"https://www.nps.gov/goga/pobo.htm","opening_hours":"Mo-Su 12:30-15:30; Tu off; We off; Th off; Fr off","capacity":null,"phone":null,"address":null,"ele":"015","osmType":"way","osmId":423023928}},{"type":"Feature","geometry":{"type":"Point","coordinates":[-122.71362,48.47793]},"properties":{"name":"Burrows Island Lighthouse","country":"United States of America","website":null,"opening_hours":null,"capacity":null,"phone":null,"address":null,"ele":null,"osmType":"way","osmId":441563680}},{"type":"Feature","geometry":{"type":"Point","coordinates":[-144.59871,59.79838]},"properties":{"name":"Cape St. Elias Lighthouse","country":"United States of America","website":"https://www.capestelias.org/","opening_hours":null,"capacity":null,"phone":null,"address":null,"ele":null,"osmType":"way","osmId":469651435}},{"type":"Feature","geometry":{"type":"Point","coordinates":[-124.16542,40.80813]},"properties":{"name":"Table Bluff Lighthouse","country":"United States of America","website":"https://www.us-lighthouses.com/table-bluff-lighthouse","opening_hours":null,"capacity":null,"phone":null,"address":null,"ele":null,"osmType":"way","osmId":474490580}},{"type":"Feature","geometry":{"type":"Point","coordinates":[-123.74055,38.95474]},"properties":{"name":"Point Arena Lighthouse","country":"United States of America","website":"https://www.pointarenalighthouse.com/","opening_hours":null,"capacity":null,"phone":null,"address":null,"ele":"011","osmType":"way","osmId":486123341}},{"type":"Feature","geometry":{"type":"Point","coordinates":[-135.22073,58.9709]},"properties":{"name":"Eldred Rock Light","country":"United States of America","website":null,"opening_hours":null,"capacity":null,"phone":null,"address":null,"ele":null,"osmType":"way","osmId":512989088}},{"type":"Feature","geometry":{"type":"Point","coordinates":[-122.5481,47.31669]},"properties":{"name":null,"country":"United States of America","website":null,"opening_hours":null,"capacity":null,"phone":null,"address":null,"ele":null,"osmType":"way","osmId":520807043}},{"type":"Feature","geometry":{"type":"Point","coordinates":[-121.93373,36.63339]},"properties":{"name":null,"country":"United States of America","website":null,"opening_hours":null,"capacity":null,"phone":null,"address":null,"ele":null,"osmType":"way","osmId":559348816}},{"type":"Feature","geometry":{"type":"Point","coordinates":[-124.11693,46.88822]},"properties":{"name":"Grays Harbor Lighthouse","country":"United States of America","website":null,"opening_hours":"Mo,Fr 11:00-17:00","capacity":null,"phone":"+1-360-268-0078","address":null,"ele":null,"osmType":"way","osmId":559675720}},{"type":"Feature","geometry":{"type":"Point","coordinates":[-122.76789,48.11038]},"properties":{"name":"Dimick Lighthouse","country":"United States of America","website":null,"opening_hours":null,"capacity":null,"phone":null,"address":"1935 Washington Street, 98368 Port Townsend, US","ele":null,"osmType":"way","osmId":562727181}},{"type":"Feature","geometry":{"type":"Point","coordinates":[-122.30621,47.94876]},"properties":{"name":"Mukilteo Lighthouse","country":"United States of America","website":"https://mukilteohistorical.org/","opening_hours":null,"capacity":null,"phone":null,"address":null,"ele":null,"osmType":"way","osmId":586464226}},{"type":"Feature","geometry":{"type":"Point","coordinates":[-122.37436,47.38813]},"properties":{"name":"Point Robinson Lighthouse","country":"United States of America","website":null,"opening_hours":null,"capacity":null,"phone":null,"address":null,"ele":null,"osmType":"way","osmId":591695253}},{"type":"Feature","geometry":{"type":"Point","coordinates":[-122.44428,47.30591]},"properties":{"name":"Browns Point Lighthouse","country":"United States of America","website":"https://www.pointsnortheast.org/","opening_hours":null,"capacity":null,"phone":null,"address":null,"ele":null,"osmType":"way","osmId":619855162}},{"type":"Feature","geometry":{"type":"Point","coordinates":[-123.9783,45.48648]},"properties":{"name":"Cape Meares Lighthouse","country":"United States of America","website":"https://friendsofcapemeareslighthouse.com/","opening_hours":null,"capacity":null,"phone":null,"address":null,"ele":null,"osmType":"way","osmId":661653959}},{"type":"Feature","geometry":{"type":"Point","coordinates":[-136.64035,58.19902]},"properties":{"name":"Cape Spencer Light","country":"United States of America","website":null,"opening_hours":null,"capacity":null,"phone":null,"address":null,"ele":null,"osmType":"way","osmId":694786410}},{"type":"Feature","geometry":{"type":"Point","coordinates":[-133.63155,57.27039]},"properties":{"name":"Five Finger Lighthouse","country":"United States of America","website":"https://fivefingerlighthouse.com/","opening_hours":null,"capacity":null,"phone":null,"address":null,"ele":null,"osmType":"way","osmId":694787512}},{"type":"Feature","geometry":{"type":"Point","coordinates":[-122.84989,47.6294]},"properties":{"name":null,"country":"United States of America","website":null,"opening_hours":null,"capacity":null,"phone":null,"address":null,"ele":null,"osmType":"way","osmId":704422392}},{"type":"Feature","geometry":{"type":"Point","coordinates":[-122.68106,48.16083]},"properties":{"name":"Admiralty Head Lighthouse","country":"United States of America","website":null,"opening_hours":null,"capacity":null,"phone":null,"address":null,"ele":null,"osmType":"way","osmId":837502022}},{"type":"Feature","geometry":{"type":"Point","coordinates":[-122.51034,37.79277]},"properties":{"name":"Mile Rocks Lighthouse","country":"United States of America","website":null,"opening_hours":null,"capacity":null,"phone":null,"address":null,"ele":null,"osmType":"way","osmId":847856761}},{"type":"Feature","geometry":{"type":"Point","coordinates":[-122.38053,47.65563]},"properties":{"name":null,"country":"United States of America","website":null,"opening_hours":null,"capacity":null,"phone":null,"address":null,"ele":null,"osmType":"way","osmId":925433076}},{"type":"Feature","geometry":{"type":"Point","coordinates":[-124.06947,40.02237]},"properties":{"name":"Cape Mendocino Light","country":"United States of America","website":null,"opening_hours":null,"capacity":null,"phone":null,"address":null,"ele":null,"osmType":"way","osmId":940995632}},{"type":"Feature","geometry":{"type":"Point","coordinates":[-122.64199,47.26997]},"properties":{"name":null,"country":"United States of America","website":null,"opening_hours":null,"capacity":null,"phone":null,"address":null,"ele":null,"osmType":"way","osmId":947032036}},{"type":"Feature","geometry":{"type":"Point","coordinates":[-122.44617,37.86106]},"properties":{"name":"Point Stuart Lighthouse","country":"United States of America","website":"https://www.us-lighthouses.com/point-stuart-lighthouse","opening_hours":null,"capacity":null,"phone":null,"address":null,"ele":null,"osmType":"way","osmId":1051744772}},{"type":"Feature","geometry":{"type":"Point","coordinates":[-124.37508,41.83692]},"properties":{"name":"St. George Reef Light","country":"United States of America","website":"http://stgeorgereeflighthouse.us/","opening_hours":null,"capacity":null,"phone":null,"address":null,"ele":null,"osmType":"way","osmId":1083526903}},{"type":"Feature","geometry":{"type":"Point","coordinates":[-124.56366,42.837]},"properties":{"name":"Cape Blanco Lighthouse","country":"United States of America","website":null,"opening_hours":null,"capacity":null,"phone":null,"address":null,"ele":null,"osmType":"way","osmId":1085664713}},{"type":"Feature","geometry":{"type":"Point","coordinates":[-122.52675,47.91219]},"properties":{"name":"Point No Point Lighthouse","country":"United States of America","website":"https://uslhs.org/about/point-no-point-vacation-rental","opening_hours":null,"capacity":null,"phone":null,"address":null,"ele":null,"osmType":"way","osmId":1089552426}},{"type":"Feature","geometry":{"type":"Point","coordinates":[-122.81931,48.32434]},"properties":{"name":"Minor Island Light","country":"United States of America","website":null,"opening_hours":null,"capacity":null,"phone":null,"address":null,"ele":null,"osmType":"way","osmId":1089754042}},{"type":"Feature","geometry":{"type":"Point","coordinates":[-134.95502,58.41142]},"properties":{"name":"Point Retreat Light","country":"United States of America","website":null,"opening_hours":null,"capacity":null,"phone":null,"address":null,"ele":null,"osmType":"way","osmId":1339186128}},{"type":"Feature","geometry":{"type":"Point","coordinates":[-124.48691,47.67439]},"properties":{"name":"Destruction Island Lighthouse","country":"United States of America","website":null,"opening_hours":null,"capacity":null,"phone":null,"address":null,"ele":null,"osmType":"way","osmId":1383615096}},{"type":"Feature","geometry":{"type":"Point","coordinates":[-90.49729,46.87137]},"properties":{"name":"Michigan Island Lighthouse","country":"United States of America","website":null,"opening_hours":null,"capacity":null,"phone":null,"address":null,"ele":null,"osmType":"node","osmId":475902605}},{"type":"Feature","geometry":{"type":"Point","coordinates":[-90.72831,47.07947]},"properties":{"name":"Devil's Island Lighthouse","country":"United States of America","website":null,"opening_hours":null,"capacity":null,"phone":null,"address":null,"ele":null,"osmType":"node","osmId":475913964}},{"type":"Feature","geometry":{"type":"Point","coordinates":[-90.41677,47.07665]},"properties":{"name":"Outer Island Lighthouse","country":"United States of America","website":null,"opening_hours":null,"capacity":null,"phone":null,"address":null,"ele":null,"osmType":"node","osmId":475916954}},{"type":"Feature","geometry":{"type":"Point","coordinates":[-90.93756,47.0031]},"properties":{"name":"Sand Island Lighthouse","country":"United States of America","website":null,"opening_hours":null,"capacity":null,"phone":null,"address":null,"ele":null,"osmType":"node","osmId":475922855}},{"type":"Feature","geometry":{"type":"Point","coordinates":[-119.7226,34.39631]},"properties":{"name":"Santa Barbara Light","country":"United States of America","website":null,"opening_hours":null,"capacity":null,"phone":null,"address":null,"ele":null,"osmType":"node","osmId":538588117}},{"type":"Feature","geometry":{"type":"Point","coordinates":[-119.03034,33.48743]},"properties":{"name":"Santa Barbara Island Light","country":"United States of America","website":null,"opening_hours":null,"capacity":null,"phone":null,"address":null,"ele":null,"osmType":"node","osmId":559184020}},{"type":"Feature","geometry":{"type":"Point","coordinates":[-118.49168,33.4632]},"properties":{"name":"Ship Rock Light","country":"United States of America","website":null,"opening_hours":null,"capacity":null,"phone":null,"address":null,"ele":null,"osmType":"node","osmId":560634775}},{"type":"Feature","geometry":{"type":"Point","coordinates":[-118.18688,33.72323]},"properties":{"name":"Long Beach Light","country":"United States of America","website":null,"opening_hours":null,"capacity":null,"phone":null,"address":null,"ele":null,"osmType":"node","osmId":566859523}},{"type":"Feature","geometry":{"type":"Point","coordinates":[-90.80497,46.97053]},"properties":{"name":"Raspberry Island Lighthouse","country":"United States of America","website":null,"opening_hours":null,"capacity":null,"phone":null,"address":null,"ele":null,"osmType":"node","osmId":582730404}},{"type":"Feature","geometry":{"type":"Point","coordinates":[-90.80892,46.72859]},"properties":{"name":"Chequamegon Point Lighthouse","country":"United States of America","website":null,"opening_hours":null,"capacity":null,"phone":null,"address":null,"ele":null,"osmType":"node","osmId":582731665}},{"type":"Feature","geometry":{"type":"Point","coordinates":[-90.7851,46.72866]},"properties":{"name":"LaPointe Lighthouse","country":"United States of America","website":null,"opening_hours":null,"capacity":null,"phone":null,"address":null,"ele":null,"osmType":"node","osmId":582732864}},{"type":"Feature","geometry":{"type":"Point","coordinates":[-90.44333,46.90686]},"properties":{"name":"Gull Island Lighthouse","country":"United States of America","website":null,"opening_hours":null,"capacity":null,"phone":null,"address":null,"ele":null,"osmType":"node","osmId":582733847}},{"type":"Feature","geometry":{"type":"Point","coordinates":[-90.18377,41.84252]},"properties":{"name":null,"country":"United States of America","website":null,"opening_hours":null,"capacity":null,"phone":null,"address":null,"ele":null,"osmType":"node","osmId":621201029}},{"type":"Feature","geometry":{"type":"Point","coordinates":[-117.24268,32.66508]},"properties":{"name":"Point Loma Light","country":"United States of America","website":"https://www.nps.gov/places/new-point-loma-lighthouse.htm","opening_hours":null,"capacity":null,"phone":null,"address":null,"ele":null,"osmType":"node","osmId":621528664}},{"type":"Feature","geometry":{"type":"Point","coordinates":[-117.7188,33.4786]},"properties":{"name":"Salt Creek Beach Park","country":"United States of America","website":null,"opening_hours":null,"capacity":null,"phone":null,"address":null,"ele":null,"osmType":"node","osmId":721786403}},{"type":"Feature","geometry":{"type":"Point","coordinates":[-91.66955,47.01061]},"properties":{"name":null,"country":"United States of America","website":null,"opening_hours":null,"capacity":null,"phone":null,"address":null,"ele":null,"osmType":"node","osmId":1726580482}},{"type":"Feature","geometry":{"type":"Point","coordinates":[-91.14297,42.95969]},"properties":{"name":null,"country":"United States of America","website":null,"opening_hours":null,"capacity":null,"phone":null,"address":null,"ele":null,"osmType":"node","osmId":3502163726}},{"type":"Feature","geometry":{"type":"Point","coordinates":[-114.3482,34.46246]},"properties":{"name":"Lake Havasu Marina Lighthouse","country":"United States of America","website":null,"opening_hours":null,"capacity":null,"phone":null,"address":"Lake Havasu City","ele":null,"osmType":"node","osmId":3745530576}},{"type":"Feature","geometry":{"type":"Point","coordinates":[-95.04552,42.30681]},"properties":{"name":null,"country":"United States of America","website":null,"opening_hours":null,"capacity":null,"phone":null,"address":null,"ele":null,"osmType":"node","osmId":3954505475}},{"type":"Feature","geometry":{"type":"Point","coordinates":[-90.16913,30.37962]},"properties":{"name":"Tchefuncte River Range Rear Light","country":"United States of America","website":null,"opening_hours":null,"capacity":null,"phone":null,"address":null,"ele":null,"osmType":"node","osmId":4065659413}},{"type":"Feature","geometry":{"type":"Point","coordinates":[-96.32145,41.05612]},"properties":{"name":null,"country":"United States of America","website":null,"opening_hours":null,"capacity":null,"phone":null,"address":null,"ele":null,"osmType":"node","osmId":5278936068}},{"type":"Feature","geometry":{"type":"Point","coordinates":[-117.27147,33.68318]},"properties":{"name":"Canyon Lake Lighthouse","country":"United States of America","website":null,"opening_hours":null,"capacity":null,"phone":null,"address":null,"ele":null,"osmType":"node","osmId":6852812654}},{"type":"Feature","geometry":{"type":"Point","coordinates":[-92.04638,46.72722]},"properties":{"name":null,"country":"United States of America","website":null,"opening_hours":null,"capacity":null,"phone":null,"address":null,"ele":null,"osmType":"node","osmId":6943918804}},{"type":"Feature","geometry":{"type":"Point","coordinates":[-97.57866,35.56517]},"properties":{"name":"Lighthouse at East Wharf","country":"United States of America","website":null,"opening_hours":null,"capacity":null,"phone":null,"address":null,"ele":null,"osmType":"node","osmId":7132232350}},{"type":"Feature","geometry":{"type":"Point","coordinates":[-90.43397,38.9681]},"properties":{"name":"Grafton Lighthouse","country":"United States of America","website":null,"opening_hours":null,"capacity":null,"phone":null,"address":null,"ele":null,"osmType":"node","osmId":7185349920}},{"type":"Feature","geometry":{"type":"Point","coordinates":[-91.26736,47.26973]},"properties":{"name":null,"country":"United States of America","website":null,"opening_hours":null,"capacity":null,"phone":null,"address":null,"ele":null,"osmType":"node","osmId":7951358063}},{"type":"Feature","geometry":{"type":"Point","coordinates":[-92.68796,38.2213]},"properties":{"name":null,"country":"United States of America","website":null,"opening_hours":null,"capacity":null,"phone":null,"address":null,"ele":null,"osmType":"node","osmId":8508257340}},{"type":"Feature","geometry":{"type":"Point","coordinates":[-90.13222,46.5219]},"properties":{"name":"IWD Beacon","country":"United States of America","website":null,"opening_hours":null,"capacity":null,"phone":null,"address":null,"ele":null,"osmType":"node","osmId":8875092753}},{"type":"Feature","geometry":{"type":"Point","coordinates":[-96.04564,41.34171]},"properties":{"name":null,"country":"United States of America","website":null,"opening_hours":null,"capacity":null,"phone":null,"address":null,"ele":null,"osmType":"node","osmId":9017867784}},{"type":"Feature","geometry":{"type":"Point","coordinates":[-92.09202,46.77871]},"properties":{"name":"South Breakwater Inner Light","country":"United States of America","website":null,"opening_hours":null,"capacity":null,"phone":null,"address":null,"ele":null,"osmType":"node","osmId":9021121686}},{"type":"Feature","geometry":{"type":"Point","coordinates":[-96.32085,41.06423]},"properties":{"name":"Linoma Lighthouse","country":"United States of America","website":null,"opening_hours":null,"capacity":null,"phone":null,"address":"17106 South 255th Street, 68028 Gretna","ele":null,"osmType":"node","osmId":9200842154}},{"type":"Feature","geometry":{"type":"Point","coordinates":[-117.21267,34.9575]},"properties":{"name":"Desert Lighthouse","country":"United States of America","website":null,"opening_hours":null,"capacity":null,"phone":null,"address":null,"ele":null,"osmType":"node","osmId":10606646325}},{"type":"Feature","geometry":{"type":"Point","coordinates":[-106.08853,39.578]},"properties":{"name":"Frisco Bay Marina Lighthouse","country":"United States of America","website":null,"opening_hours":null,"capacity":null,"phone":null,"address":null,"ele":null,"osmType":"node","osmId":11234016604}},{"type":"Feature","geometry":{"type":"Point","coordinates":[-114.34057,34.46028]},"properties":{"name":"Fire Island Lighthouse","country":"United States of America","website":null,"opening_hours":null,"capacity":null,"phone":null,"address":"Lake Havasu City","ele":null,"osmType":"node","osmId":11574044799}},{"type":"Feature","geometry":{"type":"Point","coordinates":[-114.37306,34.46004]},"properties":{"name":"Vermilion Lighthouse","country":"United States of America","website":null,"opening_hours":null,"capacity":null,"phone":null,"address":"Lake Havasu City","ele":null,"osmType":"node","osmId":11575014632}},{"type":"Feature","geometry":{"type":"Point","coordinates":[-114.3754,34.45525]},"properties":{"name":"Split Rock Lighthouse","country":"United States of America","website":null,"opening_hours":null,"capacity":null,"phone":null,"address":"Lake Havasu City","ele":null,"osmType":"node","osmId":11575026447}},{"type":"Feature","geometry":{"type":"Point","coordinates":[-114.37445,34.45216]},"properties":{"name":"Point Gratoit Lighthouse","country":"United States of America","website":null,"opening_hours":null,"capacity":null,"phone":null,"address":"Lake Havasu City","ele":null,"osmType":"node","osmId":11575119980}},{"type":"Feature","geometry":{"type":"Point","coordinates":[-114.37202,34.44927]},"properties":{"name":"Wind Point Lighthouse","country":"United States of America","website":null,"opening_hours":null,"capacity":null,"phone":null,"address":"Lake Havasu City","ele":null,"osmType":"node","osmId":11575155279}},{"type":"Feature","geometry":{"type":"Point","coordinates":[-114.36205,34.47052]},"properties":{"name":"Robert H. Manning Lighthouse","country":"United States of America","website":null,"opening_hours":null,"capacity":null,"phone":null,"address":"Lake Havasu City","ele":null,"osmType":"node","osmId":11575627028}},{"type":"Feature","geometry":{"type":"Point","coordinates":[-114.35596,34.47798]},"properties":{"name":"Cape Henry Lighthouse","country":"United States of America","website":null,"opening_hours":null,"capacity":null,"phone":null,"address":"Lake Havasu City","ele":null,"osmType":"node","osmId":11575645417}},{"type":"Feature","geometry":{"type":"Point","coordinates":[-114.36262,34.4941]},"properties":{"name":"Cape Hatteras Lighthouse","country":"United States of America","website":null,"opening_hours":null,"capacity":null,"phone":null,"address":"Lake Havasu City","ele":null,"osmType":"node","osmId":11575677696}},{"type":"Feature","geometry":{"type":"Point","coordinates":[-114.3556,34.4748]},"properties":{"name":"West Quoddy Lighthouse","country":"United States of America","website":null,"opening_hours":null,"capacity":null,"phone":null,"address":"Lake Havasu City","ele":null,"osmType":"node","osmId":11575692734}},{"type":"Feature","geometry":{"type":"Point","coordinates":[-114.40315,34.48183]},"properties":{"name":"Table Bluff Lighthouse","country":"United States of America","website":null,"opening_hours":null,"capacity":null,"phone":null,"address":"Havasu Landing","ele":null,"osmType":"node","osmId":11575702270}},{"type":"Feature","geometry":{"type":"Point","coordinates":[-114.35562,34.47564]},"properties":{"name":"East Quoddy Lighthouse","country":"United States of America","website":null,"opening_hours":null,"capacity":null,"phone":null,"address":"Lake Havasu City","ele":null,"osmType":"node","osmId":11575703073}},{"type":"Feature","geometry":{"type":"Point","coordinates":[-114.37294,34.44966]},"properties":{"name":"Alpena Lighthouse","country":"United States of America","website":null,"opening_hours":null,"capacity":null,"phone":null,"address":"Lake Havasu City","ele":null,"osmType":"node","osmId":11575707457}},{"type":"Feature","geometry":{"type":"Point","coordinates":[-114.34787,34.46536]},"properties":{"name":"Buffalo Main Lighthouse","country":"United States of America","website":null,"opening_hours":null,"capacity":null,"phone":null,"address":"Lake Havasu City","ele":null,"osmType":"node","osmId":11575790659}},{"type":"Feature","geometry":{"type":"Point","coordinates":[-114.35153,34.45238]},"properties":{"name":"White Shoal Lighthouse","country":"United States of America","website":null,"opening_hours":null,"capacity":null,"phone":null,"address":"Lake Havasu City","ele":null,"osmType":"node","osmId":11575805203}},{"type":"Feature","geometry":{"type":"Point","coordinates":[-114.36255,34.45043]},"properties":{"name":"Chicago Harbor / Navy Pier Lighthouse","country":"United States of America","website":null,"opening_hours":null,"capacity":null,"phone":null,"address":"Lake Havasu City","ele":null,"osmType":"node","osmId":11575806008}},{"type":"Feature","geometry":{"type":"Point","coordinates":[-114.34665,34.46526]},"properties":{"name":"Currituck Beach Lighthouse","country":"United States of America","website":null,"opening_hours":null,"capacity":null,"phone":null,"address":"Lake Havasu City","ele":null,"osmType":"node","osmId":11575816717}},{"type":"Feature","geometry":{"type":"Point","coordinates":[-114.3023,34.42514]},"properties":{"name":"Umpqua River Lighthouse","country":"United States of America","website":null,"opening_hours":null,"capacity":null,"phone":null,"address":"Needles","ele":null,"osmType":"node","osmId":11577741042}},{"type":"Feature","geometry":{"type":"Point","coordinates":[-114.12945,34.29918]},"properties":{"name":"Pemaquid Point Lighthouse","country":"United States of America","website":null,"opening_hours":null,"capacity":null,"phone":null,"address":"Parker","ele":null,"osmType":"node","osmId":11577744282}},{"type":"Feature","geometry":{"type":"Point","coordinates":[-114.38266,34.44825]},"properties":{"name":"Angels Gate Lighthouse","country":"United States of America","website":null,"opening_hours":null,"capacity":null,"phone":null,"address":"Chemehuevi Reservation","ele":null,"osmType":"node","osmId":11577748687}},{"type":"Feature","geometry":{"type":"Point","coordinates":[-114.31567,34.43109]},"properties":{"name":"Pigeon Point Lighthouse","country":"United States of America","website":null,"opening_hours":null,"capacity":null,"phone":null,"address":"Havasu Palms","ele":null,"osmType":"node","osmId":11577750630}},{"type":"Feature","geometry":{"type":"Point","coordinates":[-114.32052,34.43092]},"properties":{"name":"Portland Head Lighthouse","country":"United States of America","website":null,"opening_hours":null,"capacity":null,"phone":null,"address":"Havasu Palms","ele":null,"osmType":"node","osmId":11577759554}},{"type":"Feature","geometry":{"type":"Point","coordinates":[-114.27263,34.40025]},"properties":{"name":"Grays Harbor Lighthouse","country":"United States of America","website":null,"opening_hours":null,"capacity":null,"phone":null,"address":"Havasu Palms","ele":null,"osmType":"node","osmId":11577765805}},{"type":"Feature","geometry":{"type":"Point","coordinates":[-114.13549,34.30764]},"properties":{"name":"Berwick Lighthouse","country":"United States of America","website":null,"opening_hours":null,"capacity":null,"phone":null,"address":"Parker Strip","ele":null,"osmType":"node","osmId":11577868547}},{"type":"Feature","geometry":{"type":"Point","coordinates":[-114.209,34.36391]},"properties":{"name":"Barnegat Lighthouse","country":"United States of America","website":null,"opening_hours":null,"capacity":null,"phone":null,"address":"Lake Havasu City","ele":null,"osmType":"node","osmId":11577869305}},{"type":"Feature","geometry":{"type":"Point","coordinates":[-117.88702,34.92268]},"properties":{"name":"Edwards AFB Aerodrome Beacon","country":"United States of America","website":null,"opening_hours":null,"capacity":null,"phone":null,"address":null,"ele":null,"osmType":"node","osmId":11892392330}},{"type":"Feature","geometry":{"type":"Point","coordinates":[-90.38777,38.962]},"properties":{"name":null,"country":"United States of America","website":null,"opening_hours":null,"capacity":null,"phone":null,"address":null,"ele":null,"osmType":"node","osmId":12503348315}},{"type":"Feature","geometry":{"type":"Point","coordinates":[-111.89154,40.36645]},"properties":{"name":"Northshore Lighthouse","country":"United States of America","website":null,"opening_hours":null,"capacity":null,"phone":null,"address":null,"ele":null,"osmType":"node","osmId":12557825162}},{"type":"Feature","geometry":{"type":"Point","coordinates":[-90.10146,38.59949]},"properties":{"name":null,"country":"United States of America","website":null,"opening_hours":null,"capacity":null,"phone":null,"address":null,"ele":null,"osmType":"node","osmId":12580272635}},{"type":"Feature","geometry":{"type":"Point","coordinates":[-91.38308,40.42019]},"properties":{"name":null,"country":"United States of America","website":null,"opening_hours":null,"capacity":null,"phone":null,"address":null,"ele":null,"osmType":"node","osmId":12942182844}},{"type":"Feature","geometry":{"type":"Point","coordinates":[-90.60891,38.58221]},"properties":{"name":"Lake Chesterfield Lighthouse","country":"United States of America","website":null,"opening_hours":null,"capacity":null,"phone":null,"address":null,"ele":null,"osmType":"node","osmId":13043076850}},{"type":"Feature","geometry":{"type":"Point","coordinates":[-112.28805,48.30928]},"properties":{"name":"Lake Frances Lighthouse","country":"United States of America","website":null,"opening_hours":null,"capacity":null,"phone":null,"address":null,"ele":null,"osmType":"node","osmId":13389615213}},{"type":"Feature","geometry":{"type":"Point","coordinates":[-117.24099,32.67199]},"properties":{"name":"Old Point Loma Lighthouse","country":"United States of America","website":null,"opening_hours":null,"capacity":null,"phone":null,"address":null,"ele":null,"osmType":"way","osmId":90687227}},{"type":"Feature","geometry":{"type":"Point","coordinates":[-119.21002,34.14515]},"properties":{"name":"Port Hueneme Light","country":"United States of America","website":"http://www.huenemelight.org/","opening_hours":null,"capacity":null,"phone":null,"address":null,"ele":null,"osmType":"way","osmId":106597798}},{"type":"Feature","geometry":{"type":"Point","coordinates":[-117.91824,33.81361]},"properties":{"name":null,"country":"United States of America","website":null,"opening_hours":null,"capacity":null,"phone":null,"address":null,"ele":null,"osmType":"way","osmId":121785377}},{"type":"Feature","geometry":{"type":"Point","coordinates":[-117.92217,33.80627]},"properties":{"name":null,"country":"United States of America","website":null,"opening_hours":null,"capacity":null,"phone":null,"address":null,"ele":null,"osmType":"way","osmId":122630776}},{"type":"Feature","geometry":{"type":"Point","coordinates":[-119.35983,34.01582]},"properties":{"name":"Anacapa Island Light","country":"United States of America","website":null,"opening_hours":null,"capacity":null,"phone":null,"address":null,"ele":"66","osmType":"way","osmId":267491966}},{"type":"Feature","geometry":{"type":"Point","coordinates":[-97.2152,33.76621]},"properties":{"name":null,"country":"United States of America","website":null,"opening_hours":null,"capacity":null,"phone":null,"address":null,"ele":null,"osmType":"way","osmId":384576547}},{"type":"Feature","geometry":{"type":"Point","coordinates":[-118.55751,34.43053]},"properties":{"name":"Bridgeport Lighthouse","country":"United States of America","website":null,"opening_hours":null,"capacity":null,"phone":null,"address":null,"ele":null,"osmType":"way","osmId":403387321}},{"type":"Feature","geometry":{"type":"Point","coordinates":[-118.2937,33.70544]},"properties":{"name":"Point Fermin Lighthouse","country":"United States of America","website":"https://sanpedro.com/san-pedro-area-points-interest/point-fermin-lighthouse/","opening_hours":null,"capacity":null,"phone":null,"address":null,"ele":"49.5","osmType":"way","osmId":407334756}},{"type":"Feature","geometry":{"type":"Point","coordinates":[-91.35908,39.71445]},"properties":{"name":"Mark Twain Memorial Lighthouse","country":"United States of America","website":null,"opening_hours":null,"capacity":null,"phone":null,"address":null,"ele":null,"osmType":"way","osmId":579071287}},{"type":"Feature","geometry":{"type":"Point","coordinates":[-96.48267,32.88909]},"properties":{"name":null,"country":"United States of America","website":null,"opening_hours":null,"capacity":null,"phone":null,"address":null,"ele":null,"osmType":"way","osmId":623594473}},{"type":"Feature","geometry":{"type":"Point","coordinates":[-95.57875,30.40645]},"properties":{"name":"Lake Conroe Lighthouse","country":"United States of America","website":null,"opening_hours":null,"capacity":null,"phone":null,"address":null,"ele":null,"osmType":"way","osmId":630013694}},{"type":"Feature","geometry":{"type":"Point","coordinates":[-114.34761,34.45483]},"properties":{"name":"Algoma Lighthouse","country":"United States of America","website":null,"opening_hours":null,"capacity":null,"phone":null,"address":"Lake Havasu City","ele":null,"osmType":"way","osmId":677573277}},{"type":"Feature","geometry":{"type":"Point","coordinates":[-92.02586,46.71004]},"properties":{"name":"Minnesota Point Light","country":"United States of America","website":null,"opening_hours":null,"capacity":null,"phone":null,"address":null,"ele":null,"osmType":"way","osmId":697204402}},{"type":"Feature","geometry":{"type":"Point","coordinates":[-118.44636,33.97281]},"properties":{"name":null,"country":"United States of America","website":null,"opening_hours":null,"capacity":null,"phone":null,"address":null,"ele":null,"osmType":"way","osmId":867289743}},{"type":"Feature","geometry":{"type":"Point","coordinates":[-93.27174,44.99311]},"properties":{"name":"Boom Island Lighthouse","country":"United States of America","website":null,"opening_hours":null,"capacity":null,"phone":null,"address":"Minneapolis","ele":null,"osmType":"way","osmId":948785865}},{"type":"Feature","geometry":{"type":"Point","coordinates":[-98.03094,32.32717]},"properties":{"name":null,"country":"United States of America","website":null,"opening_hours":null,"capacity":null,"phone":null,"address":null,"ele":null,"osmType":"way","osmId":961719274}},{"type":"Feature","geometry":{"type":"Point","coordinates":[-90.33803,47.74515]},"properties":{"name":"Grand Marais Lighthouse","country":"United States of America","website":null,"opening_hours":null,"capacity":null,"phone":null,"address":null,"ele":null,"osmType":"way","osmId":996162754}},{"type":"Feature","geometry":{"type":"Point","coordinates":[-95.18415,42.63327]},"properties":{"name":null,"country":"United States of America","website":null,"opening_hours":null,"capacity":null,"phone":null,"address":null,"ele":null,"osmType":"way","osmId":1039624497}},{"type":"Feature","geometry":{"type":"Point","coordinates":[-118.19411,33.76024]},"properties":{"name":"Lions Lighthouse","country":"United States of America","website":null,"opening_hours":null,"capacity":null,"phone":null,"address":null,"ele":null,"osmType":"way","osmId":1054968664}},{"type":"Feature","geometry":{"type":"Point","coordinates":[-92.08826,46.78094]},"properties":{"name":"Duluth North Pier Light","country":"United States of America","website":null,"opening_hours":null,"capacity":null,"phone":null,"address":null,"ele":null,"osmType":"way","osmId":1075242725}},{"type":"Feature","geometry":{"type":"Point","coordinates":[-92.0877,46.78007]},"properties":{"name":"Duluth South Breakwater Outer Light","country":"United States of America","website":null,"opening_hours":null,"capacity":null,"phone":null,"address":null,"ele":null,"osmType":"way","osmId":1075242726}},{"type":"Feature","geometry":{"type":"Point","coordinates":[-92.0064,46.71013]},"properties":{"name":"Wisconsin Point Lighthouse","country":"United States of America","website":null,"opening_hours":null,"capacity":null,"phone":null,"address":null,"ele":null,"osmType":"way","osmId":1104395937}},{"type":"Feature","geometry":{"type":"Point","coordinates":[-90.0622,30.03213]},"properties":{"name":"Port Pontchartrain Light Station","country":"United States of America","website":null,"opening_hours":null,"capacity":null,"phone":null,"address":null,"ele":null,"osmType":"way","osmId":1173737020}},{"type":"Feature","geometry":{"type":"Point","coordinates":[-118.25162,33.70855]},"properties":{"name":"Los Angeles Light","country":"United States of America","website":null,"opening_hours":null,"capacity":null,"phone":null,"address":null,"ele":null,"osmType":"way","osmId":1312710274}},{"type":"Feature","geometry":{"type":"Point","coordinates":[-90.87045,46.62815]},"properties":{"name":"Ashland Harbor Breakwater Light","country":"United States of America","website":null,"opening_hours":null,"capacity":null,"phone":null,"address":null,"ele":null,"osmType":"way","osmId":1313800147}},{"type":"Feature","geometry":{"type":"Point","coordinates":[-119.11623,46.21776]},"properties":{"name":"Clover Island Lighthouse","country":"United States of America","website":null,"opening_hours":null,"capacity":null,"phone":null,"address":null,"ele":null,"osmType":"way","osmId":1350820190}},{"type":"Feature","geometry":{"type":"Point","coordinates":[-111.39091,41.9104]},"properties":{"name":null,"country":"United States of America","website":null,"opening_hours":null,"capacity":null,"phone":null,"address":null,"ele":null,"osmType":"way","osmId":1363944958}},{"type":"Feature","geometry":{"type":"Point","coordinates":[-114.3556,34.4748]},"properties":{"name":null,"country":"United States of America","website":null,"opening_hours":null,"capacity":null,"phone":null,"address":null,"ele":null,"osmType":"way","osmId":1432387774}},{"type":"Feature","geometry":{"type":"Point","coordinates":[-114.35562,34.47564]},"properties":{"name":null,"country":"United States of America","website":null,"opening_hours":null,"capacity":null,"phone":null,"address":null,"ele":null,"osmType":"way","osmId":1432666257}},{"type":"Feature","geometry":{"type":"Point","coordinates":[-91.56483,41.97618]},"properties":{"name":null,"country":"United States of America","website":null,"opening_hours":null,"capacity":null,"phone":null,"address":null,"ele":null,"osmType":"way","osmId":1463806802}},{"type":"Feature","geometry":{"type":"Point","coordinates":[-76.20209,43.57402]},"properties":{"name":"Selkirk Lighthouse","country":"United States of America","website":null,"opening_hours":null,"capacity":null,"phone":null,"address":null,"ele":"75","osmType":"node","osmId":158644867}},{"type":"Feature","geometry":{"type":"Point","coordinates":[-86.18131,36.83899]},"properties":{"name":"Stevns Fyr","country":"United States of America","website":null,"opening_hours":null,"capacity":null,"phone":null,"address":null,"ele":null,"osmType":"node","osmId":161602850}},{"type":"Feature","geometry":{"type":"Point","coordinates":[-70.95451,42.33985]},"properties":{"name":"Deer Island Light","country":"United States of America","website":null,"opening_hours":null,"capacity":null,"phone":null,"address":null,"ele":null,"osmType":"node","osmId":257496036}},{"type":"Feature","geometry":{"type":"Point","coordinates":[-70.28845,41.63628]},"properties":{"name":"Hyannis Harbor Light","country":"United States of America","website":null,"opening_hours":null,"capacity":null,"phone":null,"address":null,"ele":null,"osmType":"node","osmId":257496037}},{"type":"Feature","geometry":{"type":"Point","coordinates":[-70.89448,41.60379]},"properties":{"name":"Butler Flats Light","country":"United States of America","website":null,"opening_hours":null,"capacity":null,"phone":null,"address":null,"ele":null,"osmType":"node","osmId":257496038}},{"type":"Feature","geometry":{"type":"Point","coordinates":[-70.95767,42.33022]},"properties":{"name":"Long Island Head Light","country":"United States of America","website":null,"opening_hours":null,"capacity":null,"phone":null,"address":null,"ele":null,"osmType":"node","osmId":257496039}},{"type":"Feature","geometry":{"type":"Point","coordinates":[-70.90912,41.62694]},"properties":{"name":"Palmer Island Light","country":"United States of America","website":null,"opening_hours":null,"capacity":null,"phone":null,"address":null,"ele":null,"osmType":"node","osmId":257496041}},{"type":"Feature","geometry":{"type":"Point","coordinates":[-70.7575,41.46881]},"properties":{"name":"Tarpaulin Cove Light","country":"United States of America","website":null,"opening_hours":null,"capacity":null,"phone":null,"address":null,"ele":null,"osmType":"node","osmId":257496042}},{"type":"Feature","geometry":{"type":"Point","coordinates":[-70.71732,41.6693]},"properties":{"name":"Bird Island Light","country":"United States of America","website":null,"opening_hours":null,"capacity":null,"phone":null,"address":null,"ele":null,"osmType":"node","osmId":257496044}},{"type":"Feature","geometry":{"type":"Point","coordinates":[-70.83367,42.50543]},"properties":{"name":"Marblehead Light","country":"United States of America","website":null,"opening_hours":null,"capacity":null,"phone":null,"address":null,"ele":null,"osmType":"node","osmId":257496045}},{"type":"Feature","geometry":{"type":"Point","coordinates":[-70.78595,42.53647]},"properties":{"name":"Bakers Island Light","country":"United States of America","website":null,"opening_hours":null,"capacity":null,"phone":null,"address":null,"ele":null,"osmType":"node","osmId":257496047}},{"type":"Feature","geometry":{"type":"Point","coordinates":[-70.79565,41.65087]},"properties":{"name":"Ned'S Point Light","country":"United States of America","website":null,"opening_hours":null,"capacity":null,"phone":null,"address":null,"ele":null,"osmType":"node","osmId":257496048}},{"type":"Feature","geometry":{"type":"Point","coordinates":[-70.16917,41.65173]},"properties":{"name":"Bass River Light (West Dennis Light)","country":"United States of America","website":null,"opening_hours":null,"capacity":null,"phone":null,"address":null,"ele":null,"osmType":"node","osmId":257496052}},{"type":"Feature","geometry":{"type":"Point","coordinates":[-71.03479,41.39699]},"properties":{"name":"Buzzards Bay Entrance Light","country":"United States of America","website":null,"opening_hours":null,"capacity":null,"phone":null,"address":null,"ele":null,"osmType":"node","osmId":257496053}},{"type":"Feature","geometry":{"type":"Point","coordinates":[-69.95716,41.85904]},"properties":{"name":"Three Sisters Light #1","country":"United States of America","website":null,"opening_hours":null,"capacity":null,"phone":null,"address":null,"ele":null,"osmType":"node","osmId":257496061}},{"type":"Feature","geometry":{"type":"Point","coordinates":[-70.28092,41.72265]},"properties":{"name":"Sandy Neck Light","country":"United States of America","website":null,"opening_hours":null,"capacity":null,"phone":null,"address":null,"ele":null,"osmType":"node","osmId":257496067}},{"type":"Feature","geometry":{"type":"Point","coordinates":[-70.66121,41.68025]},"properties":{"name":"Wings Neck Light","country":"United States of America","website":null,"opening_hours":null,"capacity":null,"phone":null,"address":null,"ele":null,"osmType":"node","osmId":257496068}},{"type":"Feature","geometry":{"type":"Point","coordinates":[-69.94988,41.6714]},"properties":{"name":"Chatham Light","country":"United States of America","website":null,"opening_hours":null,"capacity":null,"phone":null,"address":"37 Main Street, 02633 Chatham","ele":null,"osmType":"node","osmId":257496069}},{"type":"Feature","geometry":{"type":"Point","coordinates":[-69.95708,41.85945]},"properties":{"name":"Three Sisters Light #2","country":"United States of America","website":null,"opening_hours":null,"capacity":null,"phone":null,"address":null,"ele":null,"osmType":"node","osmId":257496078}},{"type":"Feature","geometry":{"type":"Point","coordinates":[-70.86646,42.52648]},"properties":{"name":"Fort Pickering Light","country":"United States of America","website":null,"opening_hours":null,"capacity":null,"phone":null,"address":null,"ele":null,"osmType":"node","osmId":257496086}},{"type":"Feature","geometry":{"type":"Point","coordinates":[-69.95698,41.85985]},"properties":{"name":"Three Sisters Light #3","country":"United States of America","website":null,"opening_hours":null,"capacity":null,"phone":null,"address":null,"ele":null,"osmType":"node","osmId":257496087}},{"type":"Feature","geometry":{"type":"Point","coordinates":[-70.94973,41.41439]},"properties":{"name":"Cuttyhunk Light","country":"United States of America","website":null,"opening_hours":null,"capacity":null,"phone":null,"address":null,"ele":null,"osmType":"node","osmId":257496089}},{"type":"Feature","geometry":{"type":"Point","coordinates":[-70.69418,41.63096]},"properties":{"name":"Cleveland East Ledge Light","country":"United States of America","website":null,"opening_hours":null,"capacity":null,"phone":null,"address":null,"ele":null,"osmType":"node","osmId":257496091}},{"type":"Feature","geometry":{"type":"Point","coordinates":[-83.13993,42.16817]},"properties":{"name":"Grosse Ile North Channel Range Front Light","country":"United States of America","website":null,"opening_hours":null,"capacity":null,"phone":null,"address":null,"ele":null,"osmType":"node","osmId":263426390}},{"type":"Feature","geometry":{"type":"Point","coordinates":[-73.22566,44.47]},"properties":{"name":"Burlington Light South","country":"United States of America","website":null,"opening_hours":null,"capacity":null,"phone":null,"address":null,"ele":null,"osmType":"node","osmId":276320028}},{"type":"Feature","geometry":{"type":"Point","coordinates":[-86.34696,43.22411]},"properties":{"name":"South Breakwater Light","country":"United States of America","website":null,"opening_hours":null,"capacity":null,"phone":null,"address":null,"ele":"176","osmType":"node","osmId":344559082}},{"type":"Feature","geometry":{"type":"Point","coordinates":[-86.34133,43.22667]},"properties":{"name":"South Pierhead Light","country":"United States of America","website":null,"opening_hours":null,"capacity":null,"phone":null,"address":null,"ele":null,"osmType":"node","osmId":344560064}},{"type":"Feature","geometry":{"type":"Point","coordinates":[-70.93927,41.57412]},"properties":{"name":"Padanaram Breakwater","country":"United States of America","website":null,"opening_hours":null,"capacity":null,"phone":null,"address":null,"ele":"0","osmType":"node","osmId":358260354}},{"type":"Feature","geometry":{"type":"Point","coordinates":[-68.76779,44.21765]},"properties":{"name":"Eagle Island Light","country":"United States of America","website":null,"opening_hours":null,"capacity":null,"phone":null,"address":null,"ele":"20","osmType":"node","osmId":367794388}},{"type":"Feature","geometry":{"type":"Point","coordinates":[-68.13806,44.35425]},"properties":{"name":"Egg Rock Light Station","country":"United States of America","website":null,"opening_hours":null,"capacity":null,"phone":null,"address":null,"ele":"6","osmType":"node","osmId":367794389}},{"type":"Feature","geometry":{"type":"Point","coordinates":[-66.9767,44.842]},"properties":{"name":"Lubec Channel Light","country":"United States of America","website":null,"opening_hours":null,"capacity":null,"phone":null,"address":null,"ele":null,"osmType":"node","osmId":367795273}},{"type":"Feature","geometry":{"type":"Point","coordinates":[-68.26991,44.28343]},"properties":{"name":"Bear Island Light Station","country":"United States of America","website":null,"opening_hours":null,"capacity":null,"phone":null,"address":null,"ele":"14","osmType":"node","osmId":367795292}},{"type":"Feature","geometry":{"type":"Point","coordinates":[-68.70325,44.13437]},"properties":{"name":"Deer Island Thorofare Light Station","country":"United States of America","website":null,"opening_hours":null,"capacity":null,"phone":null,"address":null,"ele":"10","osmType":"node","osmId":367795294}},{"type":"Feature","geometry":{"type":"Point","coordinates":[-68.44764,44.13449]},"properties":{"name":"Burnt Coat Harbor Lighthouse","country":"United States of America","website":null,"opening_hours":null,"capacity":null,"phone":null,"address":"433 Harbor Road, 04685 Swans Island","ele":"10","osmType":"node","osmId":367795300}},{"type":"Feature","geometry":{"type":"Point","coordinates":[-73.21858,40.63245]},"properties":{"name":"Fire Island Lighthouse Visitors Center","country":"United States of America","website":null,"opening_hours":null,"capacity":null,"phone":null,"address":null,"ele":"3","osmType":"node","osmId":368062706}},{"type":"Feature","geometry":{"type":"Point","coordinates":[-79.57944,42.32861]},"properties":{"name":"Westfield Electric Light Station","country":"United States of America","website":null,"opening_hours":null,"capacity":null,"phone":null,"address":null,"ele":"215","osmType":"node","osmId":368062710}},{"type":"Feature","geometry":{"type":"Point","coordinates":[-74.1085,40.6013]},"properties":{"name":null,"country":"United States of America","website":null,"opening_hours":null,"capacity":null,"phone":null,"address":null,"ele":null,"osmType":"node","osmId":402519377}},{"type":"Feature","geometry":{"type":"Point","coordinates":[-74.05394,40.60581]},"properties":{"name":"Fort Wadsworth Light","country":"United States of America","website":null,"opening_hours":null,"capacity":null,"phone":null,"address":null,"ele":null,"osmType":"node","osmId":411613101}},{"type":"Feature","geometry":{"type":"Point","coordinates":[-74.12012,40.58079]},"properties":{"name":"New Dorp Light","country":"United States of America","website":null,"opening_hours":null,"capacity":null,"phone":null,"address":null,"ele":null,"osmType":"node","osmId":411861307}},{"type":"Feature","geometry":{"type":"Point","coordinates":[-74.21339,40.50768]},"properties":{"name":"Princes Bay Light","country":"United States of America","website":null,"opening_hours":null,"capacity":null,"phone":null,"address":null,"ele":null,"osmType":"node","osmId":411871155}},{"type":"Feature","geometry":{"type":"Point","coordinates":[-83.32896,41.76192]},"properties":{"name":"Toledo Harbor Light","country":"United States of America","website":null,"opening_hours":null,"capacity":null,"phone":null,"address":null,"ele":null,"osmType":"node","osmId":458437275}},{"type":"Feature","geometry":{"type":"Point","coordinates":[-82.35836,41.42135]},"properties":{"name":"Beaver Creek Water Tower Light","country":"United States of America","website":null,"opening_hours":null,"capacity":null,"phone":null,"address":null,"ele":null,"osmType":"node","osmId":475651206}},{"type":"Feature","geometry":{"type":"Point","coordinates":[-82.67457,41.49928]},"properties":{"name":"Sandusky Harbor Breakwater Light","country":"United States of America","website":null,"opening_hours":null,"capacity":null,"phone":null,"address":null,"ele":null,"osmType":"node","osmId":475652064}},{"type":"Feature","geometry":{"type":"Point","coordinates":[-87.69273,43.74951]},"properties":{"name":"Sheboygan Breakwater Lighthouse","country":"United States of America","website":null,"opening_hours":null,"capacity":null,"phone":null,"address":null,"ele":null,"osmType":"node","osmId":477082189}},{"type":"Feature","geometry":{"type":"Point","coordinates":[-86.24758,45.94481]},"properties":{"name":"Manistique East Breakwater Lighthouse","country":"United States of America","website":null,"opening_hours":null,"capacity":null,"phone":null,"address":null,"ele":null,"osmType":"node","osmId":478353679}},{"type":"Feature","geometry":{"type":"Point","coordinates":[-82.84131,41.6289]},"properties":{"name":"South Bass Island Light","country":"United States of America","website":null,"opening_hours":null,"capacity":null,"phone":null,"address":null,"ele":"15.24","osmType":"node","osmId":491516361}},{"type":"Feature","geometry":{"type":"Point","coordinates":[-82.78428,41.67886]},"properties":{"name":"Ballast Island Light Tower","country":"United States of America","website":null,"opening_hours":null,"capacity":null,"phone":null,"address":null,"ele":null,"osmType":"node","osmId":492456158}},{"type":"Feature","geometry":{"type":"Point","coordinates":[-83.12237,42.13569]},"properties":{"name":"Livingstone Channel Upper Entrance Light","country":"United States of America","website":null,"opening_hours":null,"capacity":null,"phone":null,"address":null,"ele":null,"osmType":"node","osmId":493888568}},{"type":"Feature","geometry":{"type":"Point","coordinates":[-86.75803,45.50356]},"properties":{"name":"Saint Martin Island Lighthouse","country":"United States of America","website":null,"opening_hours":null,"capacity":null,"phone":null,"address":null,"ele":null,"osmType":"node","osmId":495244464}},{"type":"Feature","geometry":{"type":"Point","coordinates":[-86.66662,45.52247]},"properties":{"name":"Poverty Island Lighthouse","country":"United States of America","website":null,"opening_hours":null,"capacity":null,"phone":null,"address":null,"ele":null,"osmType":"node","osmId":495388540}},{"type":"Feature","geometry":{"type":"Point","coordinates":[-72.91214,41.23445]},"properties":{"name":"Southwest Ledge Light","country":"United States of America","website":null,"opening_hours":null,"capacity":null,"phone":null,"address":null,"ele":null,"osmType":"node","osmId":497739101}},{"type":"Feature","geometry":{"type":"Point","coordinates":[-83.14125,42.00082]},"properties":{"name":"Detroit River Light","country":"United States of America","website":null,"opening_hours":null,"capacity":null,"phone":null,"address":null,"ele":null,"osmType":"node","osmId":529600880}},{"type":"Feature","geometry":{"type":"Point","coordinates":[-88.05059,30.18773]},"properties":{"name":"Sand Island Lighthouse","country":"United States of America","website":null,"opening_hours":null,"capacity":null,"phone":null,"address":null,"ele":null,"osmType":"node","osmId":530819568}},{"type":"Feature","geometry":{"type":"Point","coordinates":[-83.11184,42.26997]},"properties":{"name":null,"country":"United States of America","website":null,"opening_hours":null,"capacity":null,"phone":null,"address":null,"ele":null,"osmType":"node","osmId":533970896}},{"type":"Feature","geometry":{"type":"Point","coordinates":[-87.90107,44.65307]},"properties":{"name":"Green Bay harbor Entrance Lighthouse","country":"United States of America","website":null,"opening_hours":null,"capacity":null,"phone":null,"address":null,"ele":null,"osmType":"node","osmId":582444779}},{"type":"Feature","geometry":{"type":"Point","coordinates":[-87.42953,44.60678]},"properties":{"name":"Algoma Lighthouse","country":"United States of America","website":null,"opening_hours":null,"capacity":null,"phone":null,"address":null,"ele":null,"osmType":"node","osmId":582446301}},{"type":"Feature","geometry":{"type":"Point","coordinates":[-88.57935,48.08975]},"properties":{"name":"Rock Harbor Lighthouse","country":"United States of America","website":null,"opening_hours":null,"capacity":null,"phone":null,"address":null,"ele":null,"osmType":"node","osmId":582453473}},{"type":"Feature","geometry":{"type":"Point","coordinates":[-86.9366,45.42052]},"properties":{"name":"Boyer Bluff Lighthouse","country":"United States of America","website":null,"opening_hours":null,"capacity":null,"phone":null,"address":null,"ele":null,"osmType":"node","osmId":582699340}},{"type":"Feature","geometry":{"type":"Point","coordinates":[-86.95813,45.30765]},"properties":{"name":"Plum Island Range Rear Light","country":"United States of America","website":null,"opening_hours":null,"capacity":null,"phone":null,"address":null,"ele":"182","osmType":"node","osmId":582699343}},{"type":"Feature","geometry":{"type":"Point","coordinates":[-87.31331,44.795]},"properties":{"name":"Sturgeon Bay Ship Canal Lighthouse","country":"United States of America","website":null,"opening_hours":null,"capacity":null,"phone":null,"address":null,"ele":null,"osmType":"node","osmId":582704597}},{"type":"Feature","geometry":{"type":"Point","coordinates":[-87.50891,44.21064]},"properties":{"name":"Rawley Point Lighthouse","country":"United States of America","website":null,"opening_hours":null,"capacity":null,"phone":null,"address":null,"ele":null,"osmType":"node","osmId":582707554}},{"type":"Feature","geometry":{"type":"Point","coordinates":[-87.56241,44.1531]},"properties":{"name":"Two Rivers Lighthouse","country":"United States of America","website":null,"opening_hours":null,"capacity":null,"phone":null,"address":null,"ele":null,"osmType":"node","osmId":582707558}},{"type":"Feature","geometry":{"type":"Point","coordinates":[-87.49289,45.05642]},"properties":{"name":"Green Island Lighthouse","country":"United States of America","website":null,"opening_hours":null,"capacity":null,"phone":null,"address":null,"ele":null,"osmType":"node","osmId":582711628}},{"type":"Feature","geometry":{"type":"Point","coordinates":[-87.57912,44.95663]},"properties":{"name":"Peshtigo Reef Lighthouse","country":"United States of America","website":null,"opening_hours":null,"capacity":null,"phone":null,"address":null,"ele":null,"osmType":"node","osmId":582712062}},{"type":"Feature","geometry":{"type":"Point","coordinates":[-88.33262,43.91517]},"properties":{"name":"Calumet Harbor Lighthouse","country":"United States of America","website":null,"opening_hours":null,"capacity":null,"phone":null,"address":null,"ele":null,"osmType":"node","osmId":582715733}},{"type":"Feature","geometry":{"type":"Point","coordinates":[-88.36262,43.87353]},"properties":{"name":"Fisherman's Road Lighthouse","country":"United States of America","website":null,"opening_hours":null,"capacity":null,"phone":null,"address":null,"ele":null,"osmType":"node","osmId":582715740}},{"type":"Feature","geometry":{"type":"Point","coordinates":[-88.4374,43.79773]},"properties":{"name":"Fond du Lac Lighthouse","country":"United States of America","website":null,"opening_hours":null,"capacity":null,"phone":null,"address":null,"ele":null,"osmType":"node","osmId":582716092}},{"type":"Feature","geometry":{"type":"Point","coordinates":[-88.5148,44.06242]},"properties":{"name":"Asylum Point Lighthouse","country":"United States of America","website":null,"opening_hours":null,"capacity":null,"phone":null,"address":null,"ele":null,"osmType":"node","osmId":582723561}},{"type":"Feature","geometry":{"type":"Point","coordinates":[-88.36588,48.22349]},"properties":{"name":"Passage Island Lighthouse","country":"United States of America","website":"https://www.nps.gov/articles/000/passage-island-lighthouse.htm","opening_hours":null,"capacity":null,"phone":null,"address":null,"ele":null,"osmType":"node","osmId":582740373}},{"type":"Feature","geometry":{"type":"Point","coordinates":[-86.99852,45.5815]},"properties":{"name":"Minneapolis Shoal Lighthouse","country":"United States of America","website":null,"opening_hours":null,"capacity":null,"phone":null,"address":null,"ele":null,"osmType":"node","osmId":582742870}},{"type":"Feature","geometry":{"type":"Point","coordinates":[-87.88846,43.32349]},"properties":{"name":"Kevich Lighthouse","country":"United States of America","website":null,"opening_hours":null,"capacity":null,"phone":null,"address":null,"ele":null,"osmType":"node","osmId":582772978}},{"type":"Feature","geometry":{"type":"Point","coordinates":[-87.77203,42.7346]},"properties":{"name":"Racine Breakwater Lighthouse","country":"United States of America","website":null,"opening_hours":null,"capacity":null,"phone":null,"address":null,"ele":null,"osmType":"node","osmId":582775150}},{"type":"Feature","geometry":{"type":"Point","coordinates":[-86.96697,45.66806]},"properties":{"name":"Peninsula Point Lighthouse","country":"United States of America","website":null,"opening_hours":null,"capacity":null,"phone":null,"address":null,"ele":null,"osmType":"node","osmId":582778544}},{"type":"Feature","geometry":{"type":"Point","coordinates":[-84.61689,45.83722]},"properties":{"name":"Round Island Lighthouse","country":"United States of America","website":null,"opening_hours":null,"capacity":null,"phone":null,"address":null,"ele":null,"osmType":"node","osmId":582778691}},{"type":"Feature","geometry":{"type":"Point","coordinates":[-84.72947,45.78751]},"properties":{"name":"Old Mackinac Point Lighthouse","country":"United States of America","website":"https://www.mackinacparks.com/parks-and-attractions/old-mackinac-point-lighthouse/","opening_hours":null,"capacity":null,"phone":null,"address":"526 North Huron Avenue, 49701 Mackinaw City, US","ele":null,"osmType":"node","osmId":582779989}},{"type":"Feature","geometry":{"type":"Point","coordinates":[-84.77306,45.78714]},"properties":{"name":"McGulpin Point Lighthouse","country":"United States of America","website":null,"opening_hours":null,"capacity":null,"phone":null,"address":null,"ele":null,"osmType":"node","osmId":582779993}},{"type":"Feature","geometry":{"type":"Point","coordinates":[-84.86364,45.85509]},"properties":{"name":"St. Helena Island Lighthouse","country":"United States of America","website":null,"opening_hours":null,"capacity":null,"phone":null,"address":null,"ele":null,"osmType":"node","osmId":582780860}},